[{
  "_id": {
    "$oid": "679a98aba1745e2d73225d73"
  },
  "OPIS Truckstop ID": 7,
  "Truckstop Name": "WOODSHED OF BIG CABIN",
  "Address": "I-44, EXIT 283 & US-69",
  "City": "Big Cabin",
  "State": "OK",
  "Rack ID": 307,
  "Retail Price": 3.00733333,
  "latitude": 36.55397805819355,
  "longitude": -95.22285751035943
},
{
  "_id": {
    "$oid": "679a98aba1745e2d73225d74"
  },
  "OPIS Truckstop ID": 9,
  "Truckstop Name": "KWIK TRIP #796",
  "Address": "I-94, EXIT 143 & US-12 & SR-21",
  "City": "Tomah",
  "State": "WI",
  "Rack ID": 420,
  "Retail Price": 3.28733333,
  "latitude": 43.99415371840859,
  "longitude": -90.4617919558849
},
{
  "_id": {
    "$oid": "679a98aba1745e2d73225d75"
  },
  "OPIS Truckstop ID": 20,
  "Truckstop Name": "PILOT TRAVEL CENTER #1243",
  "Address": "I-8, EXIT 119 & SR-85",
  "City": "Gila Bend",
  "State": "AZ",
  "Rack ID": 930,
  "Retail Price": 3.899,
  "latitude": 32.942587964223186,
  "longitude": -112.74954682475777
},
{
  "_id": {
    "$oid": "679a98aba1745e2d73225d76"
  },
  "OPIS Truckstop ID": 20,
  "Truckstop Name": "PILOT #1243",
  "Address": "I-8, EXIT 119 & SR-85",
  "City": "Gila Bend",
  "State": "AZ",
  "Rack ID": 930,
  "Retail Price": 3.899,
  "latitude": 32.942587964223186,
  "longitude": -112.74954682475777
},
{
  "_id": {
    "$oid": "679a98aba1745e2d73225d77"
  },
  "OPIS Truckstop ID": 28,
  "Truckstop Name": "LITTLEFIELD EXPRESS #2",
  "Address": "I-540, EXIT 12 & US-71",
  "City": "Fort Smith",
  "State": "AR",
  "Rack ID": 645,
  "Retail Price": 3.399,
  "latitude": 35.33304914455957,
  "longitude": -94.39422272940861
},
{
  "_id": {
    "$oid": "679a98aba1745e2d73225d78"
  },
  "OPIS Truckstop ID": 35,
  "Truckstop Name": "ACI TRUCK STOP",
  "Address": "US-46",
  "City": "Columbia",
  "State": "NJ",
  "Rack ID": 90,
  "Retail Price": 3.079,
  "latitude": 40.922664995581464,
  "longitude": -75.09001150595121
},
{
  "_id": {
    "$oid": "679a98aba1745e2d73225d79"
  },
  "OPIS Truckstop ID": 36,
  "Truckstop Name": "SHENANDOAH TRUCK CENTER",
  "Address": "I-81, EXIT 273 & SR-703/SR-292",
  "City": "Mount Jackson",
  "State": "VA",
  "Rack ID": 60,
  "Retail Price": 2.899,
  "latitude": 38.74252704487838,
  "longitude": -78.65092437265733
},
{
  "_id": {
    "$oid": "679a98aba1745e2d73225d7a"
  },
  "OPIS Truckstop ID": 44,
  "Truckstop Name": "CIRCLE K #2612042",
  "Address": "I-35,  EXIT 271",
  "City": "Jarrell",
  "State": "TX",
  "Rack ID": 595,
  "Retail Price": 2.919,
  "latitude": 30.834592835200006,
  "longitude": -97.59964046036663
},
{
  "_id": {
    "$oid": "679a98aba1745e2d73225d7b"
  },
  "OPIS Truckstop ID": 46,
  "Truckstop Name": "PETRO STOPPING CENTER #348",
  "Address": "I-85,  EXIT 22 & CR-138",
  "City": "Shorter",
  "State": "AL",
  "Rack ID": 720,
  "Retail Price": 3.154,
  "latitude": 32.4167872874268,
  "longitude": -85.94382927520853
},
{
  "_id": {
    "$oid": "679a98aba1745e2d73225d7c"
  },
  "OPIS Truckstop ID": 49,
  "Truckstop Name": "TA SEYMOUR TRAVEL CENTER",
  "Address": "I-65, EXIT 50 & US-50 & US-31",
  "City": "Seymour",
  "State": "IN",
  "Rack ID": 415,
  "Retail Price": 3.959,
  "latitude": 38.9599473857823,
  "longitude": -85.84330733153286
},
{
  "_id": {
    "$oid": "679a98aba1745e2d73225d7d"
  },
  "OPIS Truckstop ID": 50,
  "Truckstop Name": "TA COUNCIL BLUFFS TRAVEL CENTER",
  "Address": "I-29 & I-80, EXIT 3",
  "City": "Council Bluffs",
  "State": "IA",
  "Rack ID": 319,
  "Retail Price": 3.72566666,
  "latitude": 41.28983059056201,
  "longitude": -95.86738181546256
},
{
  "_id": {
    "$oid": "679a98aba1745e2d73225d7e"
  },
  "OPIS Truckstop ID": 56,
  "Truckstop Name": "TOPS TRUCK STOP",
  "Address": "I-94, EXIT 182 & US-83",
  "City": "Sterling",
  "State": "ND",
  "Rack ID": 390,
  "Retail Price": 3.51566666,
  "latitude": 46.813878,
  "longitude": -100.2915
},
{
  "_id": {
    "$oid": "679a98aba1745e2d73225d7f"
  },
  "OPIS Truckstop ID": 75,
  "Truckstop Name": "Good 2 Go #709",
  "Address": "US-50",
  "City": "Montrose",
  "State": "CO",
  "Rack ID": 810,
  "Retail Price": 3.424,
  "latitude": 38.508622900000006,
  "longitude": -107.910127
},
{
  "_id": {
    "$oid": "679a98aba1745e2d73225d80"
  },
  "OPIS Truckstop ID": 77,
  "Truckstop Name": "OASIS TRAVEL PLAZA",
  "Address": "US-13",
  "City": "Laurel",
  "State": "DE",
  "Rack ID": 243,
  "Retail Price": 3.229,
  "latitude": 38.56825713817723,
  "longitude": -75.56127877002159
},
{
  "_id": {
    "$oid": "679a98aba1745e2d73225d81"
  },
  "OPIS Truckstop ID": 79,
  "Truckstop Name": "DELAWARE TRUCK PLAZA",
  "Address": "US-13 & US-40",
  "City": "New Castle                              ",
  "State": "DE",
  "Rack ID": 243,
  "Retail Price": 3.249,
  "latitude": 39.55280064312085,
  "longitude": -75.6508234374512
},
{
  "_id": {
    "$oid": "679a98aba1745e2d73225d82"
  },
  "OPIS Truckstop ID": 81,
  "Truckstop Name": "One9 #89",
  "Address": "I-75, EXIT 224",
  "City": "Ellenton",
  "State": "FL",
  "Rack ID": 225,
  "Retail Price": 3.439,
  "latitude": 27.5262425,
  "longitude": -82.52146279295091
},
{
  "_id": {
    "$oid": "679a98aba1745e2d73225d83"
  },
  "OPIS Truckstop ID": 85,
  "Truckstop Name": "DOWNIEVILLE FUEL STOP",
  "Address": "I-70, EXIT 234",
  "City": "Dumont",
  "State": "CO",
  "Rack ID": 800,
  "Retail Price": 3.459,
  "latitude": 39.76348079102945,
  "longitude": -105.58086471170168
},
{
  "_id": {
    "$oid": "679a98aba1745e2d73225d84"
  },
  "OPIS Truckstop ID": 91,
  "Truckstop Name": "MOLLYS FOOD & FUEL",
  "Address": "I-20 & ST 22, EXIT 55",
  "City": "Crawfordville                           ",
  "State": "GA",
  "Rack ID": 135,
  "Retail Price": 3.499,
  "latitude": 33.5539938,
  "longitude": -82.8961899
},
{
  "_id": {
    "$oid": "679a98aba1745e2d73225d85"
  },
  "OPIS Truckstop ID": 105,
  "Truckstop Name": "TA SAGINAW I 75 TRAVEL CENTER",
  "Address": "I-75, EXIT 144-B",
  "City": "Bridgeport",
  "State": "MI",
  "Rack ID": 260,
  "Retail Price": 3.269,
  "latitude": 43.3505793,
  "longitude": -83.8643732
},
{
  "_id": {
    "$oid": "679a98aba1745e2d73225d86"
  },
  "OPIS Truckstop ID": 105,
  "Truckstop Name": "TA SAGINAW I 75 TRAVEL CENTER",
  "Address": "I-75, EXIT 144-B",
  "City": "Bridgeport",
  "State": "MI",
  "Rack ID": 260,
  "Retail Price": 3.339,
  "latitude": 43.3505793,
  "longitude": -83.8643732
},
{
  "_id": {
    "$oid": "679a98aba1745e2d73225d87"
  },
  "OPIS Truckstop ID": 105,
  "Truckstop Name": "TA SAGINAW I 75 TRAVEL CENTER",
  "Address": "I-75, EXIT 144-B",
  "City": "Bridgeport",
  "State": "MI",
  "Rack ID": 260,
  "Retail Price": 3.429,
  "latitude": 43.3505793,
  "longitude": -83.8643732
},
{
  "_id": {
    "$oid": "679a98aba1745e2d73225d88"
  },
  "OPIS Truckstop ID": 105,
  "Truckstop Name": "TA SAGINAW I 75 TRAVEL CENTER",
  "Address": "I-75, EXIT 144-B",
  "City": "Bridgeport",
  "State": "MI",
  "Rack ID": 260,
  "Retail Price": 3.289,
  "latitude": 43.3505793,
  "longitude": -83.8643732
},
{
  "_id": {
    "$oid": "679a98aba1745e2d73225d89"
  },
  "OPIS Truckstop ID": 105,
  "Truckstop Name": "TA SAGINAW I 75 TRAVEL CENTER",
  "Address": "I-75, EXIT 144-B",
  "City": "Bridgeport",
  "State": "MI",
  "Rack ID": 260,
  "Retail Price": 3.399,
  "latitude": 43.3505793,
  "longitude": -83.8643732
},
{
  "_id": {
    "$oid": "679a98aba1745e2d73225d8a"
  },
  "OPIS Truckstop ID": 105,
  "Truckstop Name": "TA SAGINAW I 75 TRAVEL CENTER",
  "Address": "I-75, EXIT 144-B",
  "City": "Bridgeport",
  "State": "MI",
  "Rack ID": 260,
  "Retail Price": 3.299,
  "latitude": 43.3505793,
  "longitude": -83.8643732
},
{
  "_id": {
    "$oid": "679a98aba1745e2d73225d8b"
  },
  "OPIS Truckstop ID": 118,
  "Truckstop Name": "Lupton Truck Stop #567",
  "Address": "I-40, EXIT 359",
  "City": "Lupton",
  "State": "AZ",
  "Rack ID": 580,
  "Retail Price": 3.299,
  "latitude": 35.360349825753914,
  "longitude": -109.04895317771762
},
{
  "_id": {
    "$oid": "679a98aba1745e2d73225d8c"
  },
  "OPIS Truckstop ID": 121,
  "Truckstop Name": "PETRO STOPPING CENTER #306",
  "Address": "I-10, EXIT 200",
  "City": "Eloy",
  "State": "AZ",
  "Rack ID": 930,
  "Retail Price": 3.474,
  "latitude": 32.754562777335174,
  "longitude": -111.58329513250789
},
{
  "_id": {
    "$oid": "679a98aba1745e2d73225d8d"
  },
  "OPIS Truckstop ID": 127,
  "Truckstop Name": "CIRCLE K #4700095",
  "Address": "US-41",
  "City": "Henderson",
  "State": "KY",
  "Rack ID": 340,
  "Retail Price": 3.609,
  "latitude": 37.904402000000005,
  "longitude": -87.55080319999999
},
{
  "_id": {
    "$oid": "679a98aba1745e2d73225d8e"
  },
  "OPIS Truckstop ID": 128,
  "Truckstop Name": "THE EFFINGHAM CHROME SHOP",
  "Address": "I-57 & I-70, EXIT 159",
  "City": "Effingham                               ",
  "State": "IL",
  "Rack ID": 510,
  "Retail Price": 3.399,
  "latitude": 39.13697459205623,
  "longitude": -88.56072412892057
},
{
  "_id": {
    "$oid": "679a98aba1745e2d73225d8f"
  },
  "OPIS Truckstop ID": 128,
  "Truckstop Name": "THE EFFINGHAM CHROME SHOP",
  "Address": "I-57 & I-70, EXIT 159",
  "City": "Effingham                               ",
  "State": "IL",
  "Rack ID": 510,
  "Retail Price": 3.349,
  "latitude": 39.13697459205623,
  "longitude": -88.56072412892057
},
{
  "_id": {
    "$oid": "679a98aba1745e2d73225d90"
  },
  "OPIS Truckstop ID": 128,
  "Truckstop Name": "THE EFFINGHAM CHROME SHOP",
  "Address": "I-57 & I-70, EXIT 159",
  "City": "Effingham                               ",
  "State": "IL",
  "Rack ID": 510,
  "Retail Price": 3.549,
  "latitude": 39.13697459205623,
  "longitude": -88.56072412892057
},
{
  "_id": {
    "$oid": "679a98aba1745e2d73225d91"
  },
  "OPIS Truckstop ID": 135,
  "Truckstop Name": "LOVES TRAVEL STOP #766",
  "Address": "I-80, EXIT 27",
  "City": "Atkinson",
  "State": "IL",
  "Rack ID": 290,
  "Retail Price": 3.589,
  "latitude": 41.40753692843962,
  "longitude": -90.01050169722143
},
{
  "_id": {
    "$oid": "679a98aba1745e2d73225d92"
  },
  "OPIS Truckstop ID": 135,
  "Truckstop Name": "LOVES TRAVEL STOP #766",
  "Address": "I-80, EXIT 27",
  "City": "Atkinson",
  "State": "IL",
  "Rack ID": 290,
  "Retail Price": 3.389,
  "latitude": 41.40753692843962,
  "longitude": -90.01050169722143
},
{
  "_id": {
    "$oid": "679a98aba1745e2d73225d93"
  },
  "OPIS Truckstop ID": 135,
  "Truckstop Name": "LOVES TRAVEL STOP #766",
  "Address": "I-80, EXIT 27",
  "City": "Atkinson",
  "State": "IL",
  "Rack ID": 290,
  "Retail Price": 3.449,
  "latitude": 41.40753692843962,
  "longitude": -90.01050169722143
},
{
  "_id": {
    "$oid": "679a98aba1745e2d73225d94"
  },
  "OPIS Truckstop ID": 147,
  "Truckstop Name": "SPEEDWAY #8039",
  "Address": "I-69, EXIT 234 & SR-67",
  "City": "Daleville",
  "State": "IN",
  "Rack ID": 375,
  "Retail Price": 3.624,
  "latitude": 40.11755093783289,
  "longitude": -85.56861789598985
},
{
  "_id": {
    "$oid": "679a98aba1745e2d73225d95"
  },
  "OPIS Truckstop ID": 149,
  "Truckstop Name": "RAYS TRUCK WASH",
  "Address": "I-69, EXIT 309 & US-30",
  "City": "Fort Wayne                              ",
  "State": "IN",
  "Rack ID": 370,
  "Retail Price": 3.59233333,
  "latitude": 41.17200694945744,
  "longitude": -85.1035531873312
},
{
  "_id": {
    "$oid": "679a98aba1745e2d73225d96"
  },
  "OPIS Truckstop ID": 151,
  "Truckstop Name": "CUBBYS #2101",
  "Address": "I-80, EXIT 211 & SR-47",
  "City": "Gothenburg",
  "State": "NE",
  "Rack ID": 475,
  "Retail Price": 3.13233333,
  "latitude": 40.9277324,
  "longitude": -100.1619896
},
{
  "_id": {
    "$oid": "679a98aba1745e2d73225d97"
  },
  "OPIS Truckstop ID": 159,
  "Truckstop Name": "PILOT TRAVEL CENTER #87",
  "Address": "I-10, EXIT 343",
  "City": "Jacksonville",
  "State": "FL",
  "Rack ID": 75,
  "Retail Price": 3.859,
  "latitude": 30.32138420300568,
  "longitude": -81.69407814384176
},
{
  "_id": {
    "$oid": "679a98aba1745e2d73225d98"
  },
  "OPIS Truckstop ID": 159,
  "Truckstop Name": "PILOT TRAVEL CENTERS #87",
  "Address": "I-10, EXIT 343",
  "City": "Jacksonville",
  "State": "FL",
  "Rack ID": 75,
  "Retail Price": 3.859,
  "latitude": 30.32138420300568,
  "longitude": -81.69407814384176
},
{
  "_id": {
    "$oid": "679a98aba1745e2d73225d99"
  },
  "OPIS Truckstop ID": 160,
  "Truckstop Name": "PILOT TRAVEL CENTERS #79",
  "Address": "I-12, EXIT 10 AT MILE 10",
  "City": "Denham Springs                          ",
  "State": "LA",
  "Rack ID": 600,
  "Retail Price": 3.23233333,
  "latitude": 30.450599150000002,
  "longitude": -90.9746959
},
{
  "_id": {
    "$oid": "679a98aba1745e2d73225d9a"
  },
  "OPIS Truckstop ID": 164,
  "Truckstop Name": "FLYING J TRAVEL PLAZA #650",
  "Address": "I-94, EXIT 15 B",
  "City": "Lake Station                            ",
  "State": "IN",
  "Rack ID": 365,
  "Retail Price": 3.809,
  "latitude": 41.5727584,
  "longitude": -87.28083315
},
{
  "_id": {
    "$oid": "679a98aba1745e2d73225d9b"
  },
  "OPIS Truckstop ID": 167,
  "Truckstop Name": "FLYING J TRAVEL PLAZA #653",
  "Address": "RT 2 & I-65 EXIT 240",
  "City": "Hebron",
  "State": "IN",
  "Rack ID": 365,
  "Retail Price": 3.43566666,
  "latitude": 41.3186482,
  "longitude": -87.2003091
},
{
  "_id": {
    "$oid": "679a98aba1745e2d73225d9c"
  },
  "OPIS Truckstop ID": 174,
  "Truckstop Name": "Hop-In Food Stores",
  "Address": "US-59 & SR-224",
  "City": "Nacogdoches                             ",
  "State": "TX",
  "Rack ID": 618,
  "Retail Price": 2.859,
  "latitude": 31.66649425,
  "longitude": -94.6748584
},
{
  "_id": {
    "$oid": "679a98aba1745e2d73225d9d"
  },
  "OPIS Truckstop ID": 184,
  "Truckstop Name": "SAPP BROS TRAVEL CENTER",
  "Address": "I-29 & I-80, EXIT 1B",
  "City": "Council Bluffs",
  "State": "IA",
  "Rack ID": 486,
  "Retail Price": 3.719,
  "latitude": 41.28983059056201,
  "longitude": -95.86738181546256
},
{
  "_id": {
    "$oid": "679a98aba1745e2d73225d9e"
  },
  "OPIS Truckstop ID": 186,
  "Truckstop Name": "COFFEE CUP FUEL STOP #5",
  "Address": "I-90, EXIT 154 & US-16",
  "City": "Moorcroft                               ",
  "State": "WY",
  "Rack ID": 822,
  "Retail Price": 3.239,
  "latitude": 44.270166787590675,
  "longitude": -104.95882657004586
},
{
  "_id": {
    "$oid": "679a98aba1745e2d73225d9f"
  },
  "OPIS Truckstop ID": 187,
  "Truckstop Name": "DUDLEYS CORNER",
  "Address": "I-35, EXIT 165 & SR-3",
  "City": "Latimer",
  "State": "IA",
  "Rack ID": 433,
  "Retail Price": 3.23233333,
  "latitude": 42.77412068320187,
  "longitude": -93.37997442677434
},
{
  "_id": {
    "$oid": "679a98aba1745e2d73225da0"
  },
  "OPIS Truckstop ID": 191,
  "Truckstop Name": "KUM & GO #0302",
  "Address": "I-35, EXIT 193 & SR 106",
  "City": "Clear Lake",
  "State": "IA",
  "Rack ID": 433,
  "Retail Price": 3.18566666,
  "latitude": 43.1440643,
  "longitude": -93.35572255
},
{
  "_id": {
    "$oid": "679a98aba1745e2d73225da1"
  },
  "OPIS Truckstop ID": 192,
  "Truckstop Name": "Brew Stuart Truckstop",
  "Address": "I-80, EXIT 93",
  "City": "Stuart                                  ",
  "State": "IA",
  "Rack ID": 320,
  "Retail Price": 3.099,
  "latitude": 41.496184743607294,
  "longitude": -94.37485472671487
},
{
  "_id": {
    "$oid": "679a98aba1745e2d73225da2"
  },
  "OPIS Truckstop ID": 195,
  "Truckstop Name": "PETRO STOPPING CENTER #311",
  "Address": "I-40 & I-55, EXIT 280",
  "City": "West Memphis",
  "State": "AR",
  "Rack ID": 435,
  "Retail Price": 3.36733333,
  "latitude": 35.16196826336555,
  "longitude": -90.22050734545581
},
{
  "_id": {
    "$oid": "679a98aba1745e2d73225da3"
  },
  "OPIS Truckstop ID": 198,
  "Truckstop Name": "SINCLAIR",
  "Address": "I-76, EXIT 115",
  "City": "Atwood",
  "State": "CO",
  "Rack ID": 800,
  "Retail Price": 3.299,
  "latitude": 40.5477619,
  "longitude": -103.2696575
},
{
  "_id": {
    "$oid": "679a98aba1745e2d73225da4"
  },
  "OPIS Truckstop ID": 199,
  "Truckstop Name": "PETRO STOPPING CENTER #366",
  "Address": "I-70, EXIT 252",
  "City": "Salina",
  "State": "KS",
  "Rack ID": 523,
  "Retail Price": 3.80566666,
  "latitude": 38.87621896228626,
  "longitude": -97.61722227445124
},
{
  "_id": {
    "$oid": "679a98aba1745e2d73225da5"
  },
  "OPIS Truckstop ID": 203,
  "Truckstop Name": "PILOT TRAVEL CENTER #31",
  "Address": "I-80/94, EXIT 2",
  "City": "Highland",
  "State": "IN",
  "Rack ID": 365,
  "Retail Price": 3.829,
  "latitude": 38.0450618,
  "longitude": -87.562929
},
{
  "_id": {
    "$oid": "679a98aba1745e2d73225da6"
  },
  "OPIS Truckstop ID": 203,
  "Truckstop Name": "PILOT TRAVEL CENTERS #31",
  "Address": "I-80/94, EXIT 2",
  "City": "Highland",
  "State": "IN",
  "Rack ID": 365,
  "Retail Price": 3.799,
  "latitude": 38.0450618,
  "longitude": -87.562929
},
{
  "_id": {
    "$oid": "679a98aba1745e2d73225da7"
  },
  "OPIS Truckstop ID": 207,
  "Truckstop Name": "MARATHON",
  "Address": "SR-32",
  "City": "Sardinia                                ",
  "State": "OH",
  "Rack ID": 300,
  "Retail Price": 3.56566666,
  "latitude": 38.989791359552825,
  "longitude": -83.76226208194797
},
{
  "_id": {
    "$oid": "679a98aba1745e2d73225da8"
  },
  "OPIS Truckstop ID": 216,
  "Truckstop Name": "CIRCLE K #2721593",
  "Address": "I-10, EXIT 50",
  "City": "Ocean Springs",
  "State": "MS",
  "Rack ID": 715,
  "Retail Price": 3.41566666,
  "latitude": 30.442051829869488,
  "longitude": -88.71959966514355
},
{
  "_id": {
    "$oid": "679a98aba1745e2d73225da9"
  },
  "OPIS Truckstop ID": 217,
  "Truckstop Name": "NORTH 9TH 24/7",
  "Address": "I-70, EXIT 252",
  "City": "Salina",
  "State": "KS",
  "Rack ID": 523,
  "Retail Price": 3.02566666,
  "latitude": 38.87621896228626,
  "longitude": -97.61722227445124
},
{
  "_id": {
    "$oid": "679a98aba1745e2d73225daa"
  },
  "OPIS Truckstop ID": 231,
  "Truckstop Name": "DERBY CITYS TRUCK PLAZA",
  "Address": "I-75, EXIT 62 & US-25",
  "City": "Mount Vernon",
  "State": "KY",
  "Rack ID": 410,
  "Retail Price": 2.999,
  "latitude": 37.38152074304948,
  "longitude": -84.33396290040132
},
{
  "_id": {
    "$oid": "679a98aba1745e2d73225dab"
  },
  "OPIS Truckstop ID": 235,
  "Truckstop Name": "PILOT TRAVEL CENTERS #92",
  "Address": "I-75, EXIT 358",
  "City": "Ocala",
  "State": "FL",
  "Rack ID": 225,
  "Retail Price": 3.359,
  "latitude": 29.196343542330577,
  "longitude": -82.18453907698314
},
{
  "_id": {
    "$oid": "679a98aba1745e2d73225dac"
  },
  "OPIS Truckstop ID": 235,
  "Truckstop Name": "PILOT TRAVEL CENTER #92",
  "Address": "I-75, EXIT 358",
  "City": "Ocala",
  "State": "FL",
  "Rack ID": 225,
  "Retail Price": 3.41233333,
  "latitude": 29.196343542330577,
  "longitude": -82.18453907698314
},
{
  "_id": {
    "$oid": "679a98aba1745e2d73225dad"
  },
  "OPIS Truckstop ID": 240,
  "Truckstop Name": "LA 1 SOUTH TRUCKSTOP",
  "Address": "I-10, EXIT 153 & SR-1",
  "City": "Port Allen",
  "State": "LA",
  "Rack ID": 600,
  "Retail Price": 3.039,
  "latitude": 30.440106,
  "longitude": -91.20845825
},
{
  "_id": {
    "$oid": "679a98aba1745e2d73225dae"
  },
  "OPIS Truckstop ID": 243,
  "Truckstop Name": "SAVE",
  "Address": "US-41 & SR-10",
  "City": "Lake Village",
  "State": "IN",
  "Rack ID": 399,
  "Retail Price": 3.179,
  "latitude": 41.1375346,
  "longitude": -87.4486437
},
{
  "_id": {
    "$oid": "679a98aba1745e2d73225daf"
  },
  "OPIS Truckstop ID": 244,
  "Truckstop Name": "BIG D TRUCK TRAVEL PLAZA",
  "Address": "I-10, EXIT 92 & SR-95",
  "City": "Duson",
  "State": "LA",
  "Rack ID": 725,
  "Retail Price": 2.98233333,
  "latitude": 30.247240211026618,
  "longitude": -92.13090979060294
},
{
  "_id": {
    "$oid": "679a98aba1745e2d73225db0"
  },
  "OPIS Truckstop ID": 248,
  "Truckstop Name": "Mardi Gras Truck Stop",
  "Address": "I-10, EXIT 236",
  "City": "New Orleans",
  "State": "LA",
  "Rack ID": 725,
  "Retail Price": 3.729,
  "latitude": 30.06861,
  "longitude": -89.92963
},
{
  "_id": {
    "$oid": "679a98aba1745e2d73225db1"
  },
  "OPIS Truckstop ID": 250,
  "Truckstop Name": "GOLDEN OX TRUCK STOP",
  "Address": "I-70/US-40, EXIT 159 & US-183",
  "City": "Hays",
  "State": "KS",
  "Rack ID": 523,
  "Retail Price": 3.499,
  "latitude": 38.89936845,
  "longitude": -99.31968605
},
{
  "_id": {
    "$oid": "679a98aba1745e2d73225db2"
  },
  "OPIS Truckstop ID": 253,
  "Truckstop Name": "LOVES TRAVEL STOP #450",
  "Address": "I-40, EXIT 280 & I-55, EXIT 4",
  "City": "West Memphis",
  "State": "AR",
  "Rack ID": 435,
  "Retail Price": 3.32566666,
  "latitude": 35.16196826336555,
  "longitude": -90.22050734545581
},
{
  "_id": {
    "$oid": "679a98aba1745e2d73225db3"
  },
  "OPIS Truckstop ID": 256,
  "Truckstop Name": "BFS FOODS #66",
  "Address": "I-68/US-40, EXIT 22 & US-219",
  "City": "Grantsville                             ",
  "State": "MD",
  "Rack ID": 165,
  "Retail Price": 3.899,
  "latitude": 39.692005094723605,
  "longitude": -79.1514612311697
},
{
  "_id": {
    "$oid": "679a98aba1745e2d73225db4"
  },
  "OPIS Truckstop ID": 257,
  "Truckstop Name": "PILOT TRAVEL CENTER #917- TOWN PUMP",
  "Address": "I-15 & 31ST STREET EXIT 277",
  "City": "Great Falls                             ",
  "State": "MT",
  "Rack ID": 815,
  "Retail Price": 3.63566666,
  "latitude": 47.5026072,
  "longitude": -111.3427121
},
{
  "_id": {
    "$oid": "679a98aba1745e2d73225db5"
  },
  "OPIS Truckstop ID": 263,
  "Truckstop Name": "CASEYS #3956",
  "Address": "I-94 EXIT 16",
  "City": "Bridgman",
  "State": "MI",
  "Rack ID": 465,
  "Retail Price": 3.559,
  "latitude": 41.906773009252895,
  "longitude": -86.58347188019329
},
{
  "_id": {
    "$oid": "679a98aba1745e2d73225db6"
  },
  "OPIS Truckstop ID": 267,
  "Truckstop Name": "CORNER MARKET #117",
  "Address": "SR-154 & SR-129",
  "City": "Dodge City",
  "State": "KS",
  "Rack ID": 357,
  "Retail Price": 3.399,
  "latitude": 37.74250027176732,
  "longitude": -100.01812551003121
},
{
  "_id": {
    "$oid": "679a98aba1745e2d73225db7"
  },
  "OPIS Truckstop ID": 269,
  "Truckstop Name": "PILOT TRAVEL CENTERS #24",
  "Address": "I-75, EXIT 15",
  "City": "Monroe                                  ",
  "State": "MI",
  "Rack ID": 325,
  "Retail Price": 3.299,
  "latitude": 41.803113992652,
  "longitude": -83.45513348846401
},
{
  "_id": {
    "$oid": "679a98aba1745e2d73225db8"
  },
  "OPIS Truckstop ID": 269,
  "Truckstop Name": "PILOT TRAVEL CENTERS #24",
  "Address": "I-75, EXIT 15",
  "City": "Monroe                                  ",
  "State": "MI",
  "Rack ID": 325,
  "Retail Price": 3.249,
  "latitude": 41.803113992652,
  "longitude": -83.45513348846401
},
{
  "_id": {
    "$oid": "679a98aba1745e2d73225db9"
  },
  "OPIS Truckstop ID": 269,
  "Truckstop Name": "PILOT TRAVEL CENTERS #24",
  "Address": "I-75, EXIT 15",
  "City": "Monroe                                  ",
  "State": "MI",
  "Rack ID": 325,
  "Retail Price": 3.439,
  "latitude": 41.803113992652,
  "longitude": -83.45513348846401
},
{
  "_id": {
    "$oid": "679a98aba1745e2d73225dba"
  },
  "OPIS Truckstop ID": 269,
  "Truckstop Name": "PILOT TRAVEL CENTERS #24",
  "Address": "I-75, EXIT 15",
  "City": "Monroe                                  ",
  "State": "MI",
  "Rack ID": 325,
  "Retail Price": 3.349,
  "latitude": 41.803113992652,
  "longitude": -83.45513348846401
},
{
  "_id": {
    "$oid": "679a98aba1745e2d73225dbb"
  },
  "OPIS Truckstop ID": 269,
  "Truckstop Name": "PILOT TRAVEL CENTERS #24",
  "Address": "I-75, EXIT 15",
  "City": "Monroe                                  ",
  "State": "MI",
  "Rack ID": 325,
  "Retail Price": 3.559,
  "latitude": 41.803113992652,
  "longitude": -83.45513348846401
},
{
  "_id": {
    "$oid": "679a98aba1745e2d73225dbc"
  },
  "OPIS Truckstop ID": 278,
  "Truckstop Name": "CARLISLE PLAZA",
  "Address": "US-41",
  "City": "Carlisle",
  "State": "IN",
  "Rack ID": 510,
  "Retail Price": 3.499,
  "latitude": 38.94172109323203,
  "longitude": -87.41520714408024
},
{
  "_id": {
    "$oid": "679a98aba1745e2d73225dbd"
  },
  "OPIS Truckstop ID": 281,
  "Truckstop Name": "CIRCLE K #4700065",
  "Address": "I-65, EXIT 76 & US-31",
  "City": "Taylorsville",
  "State": "IN",
  "Rack ID": 375,
  "Retail Price": 3.399,
  "latitude": 39.30858115405344,
  "longitude": -85.95845937949612
},
{
  "_id": {
    "$oid": "679a98aba1745e2d73225dbe"
  },
  "OPIS Truckstop ID": 289,
  "Truckstop Name": "LOVES TRAVEL STOP #173",
  "Address": "I-70, MM 209",
  "City": "Lawrence",
  "State": "KS",
  "Rack ID": 553,
  "Retail Price": 3.229,
  "latitude": 38.99334869358529,
  "longitude": -95.27249476116037
},
{
  "_id": {
    "$oid": "679a98aba1745e2d73225dbf"
  },
  "OPIS Truckstop ID": 292,
  "Truckstop Name": "PETES #56",
  "Address": "US-169 & CR-5000",
  "City": "Cherryvale",
  "State": "KS",
  "Rack ID": 307,
  "Retail Price": 3.23233333,
  "latitude": 37.27087005,
  "longitude": -95.56894755
},
{
  "_id": {
    "$oid": "679a98aba1745e2d73225dc0"
  },
  "OPIS Truckstop ID": 293,
  "Truckstop Name": "LOVES TRAVEL STOP #176",
  "Address": "I-35, MILE MARKER 97",
  "City": "Matfield Green",
  "State": "KS",
  "Rack ID": 336,
  "Retail Price": 3.25566666,
  "latitude": 38.1591843,
  "longitude": -96.5605664
},
{
  "_id": {
    "$oid": "679a98aba1745e2d73225dc1"
  },
  "OPIS Truckstop ID": 304,
  "Truckstop Name": "FL Roberts",
  "Address": "I-91, EXIT 4",
  "City": "Springfield",
  "State": "MA",
  "Rack ID": 100,
  "Retail Price": 3.599,
  "latitude": 42.08997214664889,
  "longitude": -72.58183667076925
},
{
  "_id": {
    "$oid": "679a98aba1745e2d73225dc2"
  },
  "OPIS Truckstop ID": 309,
  "Truckstop Name": "QUIKTRIP #231",
  "Address": "I-635, EXIT 3",
  "City": "Kansas City",
  "State": "KS",
  "Rack ID": 400,
  "Retail Price": 3.199,
  "latitude": 39.13385379089261,
  "longitude": -94.67639777410741
},
{
  "_id": {
    "$oid": "679a98aba1745e2d73225dc3"
  },
  "OPIS Truckstop ID": 323,
  "Truckstop Name": "SAPP BROS TRAVEL CENTER",
  "Address": "I-80, EXIT 126",
  "City": "Ogallala",
  "State": "NE",
  "Rack ID": 475,
  "Retail Price": 3.46566666,
  "latitude": 41.1181480462716,
  "longitude": -101.58347827893994
},
{
  "_id": {
    "$oid": "679a98aba1745e2d73225dc4"
  },
  "OPIS Truckstop ID": 326,
  "Truckstop Name": "FLYING J TRAVEL PLAZA #748",
  "Address": "I-15, EXIT 357",
  "City": "Willard                                 ",
  "State": "UT",
  "Rack ID": 835,
  "Retail Price": 3.749,
  "latitude": 41.43888209180647,
  "longitude": -112.05671196693095
},
{
  "_id": {
    "$oid": "679a98aba1745e2d73225dc5"
  },
  "OPIS Truckstop ID": 341,
  "Truckstop Name": "TA JACKSONVILLE SOUTH TRAVEL CENTER",
  "Address": "I-95, EXIT 329",
  "City": "Saint Johns",
  "State": "FL",
  "Rack ID": 75,
  "Retail Price": 3.469,
  "latitude": 29.878769187218317,
  "longitude": -81.4003922919431
},
{
  "_id": {
    "$oid": "679a98aba1745e2d73225dc6"
  },
  "OPIS Truckstop ID": 347,
  "Truckstop Name": "7-ELEVEN #40514",
  "Address": "I-90/80-IN TOLL RD MM 22E",
  "City": "Portage",
  "State": "IN",
  "Rack ID": 365,
  "Retail Price": 3.99066666,
  "latitude": 41.57590965,
  "longitude": -87.15623185
},
{
  "_id": {
    "$oid": "679a98aba1745e2d73225dc7"
  },
  "OPIS Truckstop ID": 358,
  "Truckstop Name": "TA BINGHAMTON TRAVELCENTER",
  "Address": "I-81N, EXIT 2W & I-81S, EXIT 3",
  "City": "Binghamton",
  "State": "NY",
  "Rack ID": 32,
  "Retail Price": 3.769,
  "latitude": null,
  "longitude": null
},
{
  "_id": {
    "$oid": "679a98aba1745e2d73225dc8"
  },
  "OPIS Truckstop ID": 358,
  "Truckstop Name": "TA BINGHAMTON TRAVELCENTER",
  "Address": "I-81N, EXIT 2W & I-81S, EXIT 3",
  "City": "Binghamton",
  "State": "NY",
  "Rack ID": 32,
  "Retail Price": 3.689,
  "latitude": null,
  "longitude": null
},
{
  "_id": {
    "$oid": "679a98aba1745e2d73225dc9"
  },
  "OPIS Truckstop ID": 358,
  "Truckstop Name": "TA BINGHAMTON TRAVELCENTER",
  "Address": "I-81N, EXIT 2W & I-81S, EXIT 3",
  "City": "Binghamton",
  "State": "NY",
  "Rack ID": 32,
  "Retail Price": 3.699,
  "latitude": null,
  "longitude": null
},
{
  "_id": {
    "$oid": "679a98aba1745e2d73225dca"
  },
  "OPIS Truckstop ID": 358,
  "Truckstop Name": "TA BINGHAMTON TRAVELCENTER",
  "Address": "I-81N, EXIT 2W & I-81S, EXIT 3",
  "City": "Binghamton",
  "State": "NY",
  "Rack ID": 32,
  "Retail Price": 3.739,
  "latitude": null,
  "longitude": null
},
{
  "_id": {
    "$oid": "679a98aba1745e2d73225dcb"
  },
  "OPIS Truckstop ID": 361,
  "Truckstop Name": "CIRCLE K #2726293",
  "Address": "I-295, EXIT 25",
  "City": "Jacksonville",
  "State": "FL",
  "Rack ID": 75,
  "Retail Price": 3.31566666,
  "latitude": 30.408652394536272,
  "longitude": -81.75195597263634
},
{
  "_id": {
    "$oid": "679a98aba1745e2d73225dcc"
  },
  "OPIS Truckstop ID": 368,
  "Truckstop Name": "WILTON TRAVEL PLAZA",
  "Address": "I-87, EXIT 16",
  "City": "Gansevoort                              ",
  "State": "NY",
  "Rack ID": 12,
  "Retail Price": 3.749,
  "latitude": 43.196027,
  "longitude": -73.651484
},
{
  "_id": {
    "$oid": "679a98aba1745e2d73225dcd"
  },
  "OPIS Truckstop ID": 368,
  "Truckstop Name": "WILTON TRAVEL PLAZA",
  "Address": "I-87, EXIT 16",
  "City": "Gansevoort                              ",
  "State": "NY",
  "Rack ID": 12,
  "Retail Price": 3.799,
  "latitude": 43.196027,
  "longitude": -73.651484
},
{
  "_id": {
    "$oid": "679a98aba1745e2d73225dce"
  },
  "OPIS Truckstop ID": 372,
  "Truckstop Name": "GAS DEPOT",
  "Address": "I-94, EXIT 5",
  "City": "Hammond",
  "State": "IN",
  "Rack ID": 365,
  "Retail Price": 3.999,
  "latitude": 41.5736803633949,
  "longitude": -87.4472793645413
},
{
  "_id": {
    "$oid": "679a98aba1745e2d73225dcf"
  },
  "OPIS Truckstop ID": 381,
  "Truckstop Name": "7-Eleven #41830",
  "Address": "US-69 & US-135",
  "City": "Jacksonville",
  "State": "TX",
  "Rack ID": 630,
  "Retail Price": 2.91566666,
  "latitude": 32.00370287062954,
  "longitude": -95.2770017728064
},
{
  "_id": {
    "$oid": "679a98aba1745e2d73225dd0"
  },
  "OPIS Truckstop ID": 387,
  "Truckstop Name": "Circle K #2709664",
  "Address": "I-8, EXIT 12",
  "City": "Yuma",
  "State": "AZ",
  "Rack ID": 930,
  "Retail Price": 3.489,
  "latitude": 32.67583468346336,
  "longitude": -114.4980599874383
},
{
  "_id": {
    "$oid": "679a98aba1745e2d73225dd1"
  },
  "OPIS Truckstop ID": 388,
  "Truckstop Name": "Pilot Travel Centers #14",
  "Address": "I-71, EXIT 131",
  "City": "Sunbury",
  "State": "OH",
  "Rack ID": 315,
  "Retail Price": 3.719,
  "latitude": 40.2425623,
  "longitude": -82.8590673
},
{
  "_id": {
    "$oid": "679a98aba1745e2d73225dd2"
  },
  "OPIS Truckstop ID": 391,
  "Truckstop Name": "PILOT TRAVEL CENTERS #13",
  "Address": "I-71, EXIT 209",
  "City": "Seville",
  "State": "OH",
  "Rack ID": 305,
  "Retail Price": 3.699,
  "latitude": 41.010077,
  "longitude": -81.8622222
},
{
  "_id": {
    "$oid": "679a98aba1745e2d73225dd3"
  },
  "OPIS Truckstop ID": 403,
  "Truckstop Name": "TRUCKOMAT OF HEBRON",
  "Address": "I-70, EXIT 126 & SR-37",
  "City": "Hebron",
  "State": "OH",
  "Rack ID": 315,
  "Retail Price": 3.429,
  "latitude": 39.9617305,
  "longitude": -82.4912676
},
{
  "_id": {
    "$oid": "679a98aba1745e2d73225dd4"
  },
  "OPIS Truckstop ID": 407,
  "Truckstop Name": "FUEL MART #641",
  "Address": "I-80 & I-280, EXIT 71",
  "City": "Perrysburg                              ",
  "State": "OH",
  "Rack ID": 550,
  "Retail Price": 3.499,
  "latitude": 41.5571178,
  "longitude": -83.6279321
},
{
  "_id": {
    "$oid": "679a98aba1745e2d73225dd5"
  },
  "OPIS Truckstop ID": 421,
  "Truckstop Name": "PETRO STOPPING CENTER #316",
  "Address": "I-40 & I-35, EXIT 127",
  "City": "Oklahoma City",
  "State": "OK",
  "Rack ID": 483,
  "Retail Price": 3.30233333,
  "latitude": 35.46299605,
  "longitude": -97.49398235000001
},
{
  "_id": {
    "$oid": "679a98aba1745e2d73225dd6"
  },
  "OPIS Truckstop ID": 424,
  "Truckstop Name": "E EXPRESS",
  "Address": "I-40, EXIT 166",
  "City": "Choctaw",
  "State": "OK",
  "Rack ID": 483,
  "Retail Price": 2.899,
  "latitude": 35.4975654,
  "longitude": -97.2689263
},
{
  "_id": {
    "$oid": "679a98aba1745e2d73225dd7"
  },
  "OPIS Truckstop ID": 425,
  "Truckstop Name": "Neighbors Express",
  "Address": "I-16, EXIT 51",
  "City": "Dublin                                  ",
  "State": "GA",
  "Rack ID": 85,
  "Retail Price": 3.299,
  "latitude": 32.49383018149783,
  "longitude": -82.96303094883208
},
{
  "_id": {
    "$oid": "679a98aba1745e2d73225dd8"
  },
  "OPIS Truckstop ID": 442,
  "Truckstop Name": "WESTERN COOP",
  "Address": "US-385 & SR-2",
  "City": "Alliance",
  "State": "NE",
  "Rack ID": 795,
  "Retail Price": 3.324,
  "latitude": 42.10189546279665,
  "longitude": -102.89827533834577
},
{
  "_id": {
    "$oid": "679a98aba1745e2d73225dd9"
  },
  "OPIS Truckstop ID": 455,
  "Truckstop Name": "MR FUEL #753",
  "Address": "I-95, EXIT 104 & SR-207",
  "City": "Ruther Glen",
  "State": "VA",
  "Rack ID": 180,
  "Retail Price": 3.26566666,
  "latitude": 37.9248882,
  "longitude": -77.46224385
},
{
  "_id": {
    "$oid": "679a98aba1745e2d73225dda"
  },
  "OPIS Truckstop ID": 456,
  "Truckstop Name": "THE COUNTRY OASIS",
  "Address": "US-24",
  "City": "Woodburn                                ",
  "State": "IN",
  "Rack ID": 370,
  "Retail Price": 3.399,
  "latitude": 41.1253271,
  "longitude": -84.8532963
},
{
  "_id": {
    "$oid": "679a98aba1745e2d73225ddb"
  },
  "OPIS Truckstop ID": 458,
  "Truckstop Name": "HAPPY HILLS GAS & COFFEE",
  "Address": "I-29 EXIT 110",
  "City": "Rock Port",
  "State": "MO",
  "Rack ID": 400,
  "Retail Price": 3.399,
  "latitude": 40.45501015017214,
  "longitude": -95.58339515755145
},
{
  "_id": {
    "$oid": "679a98aba1745e2d73225ddc"
  },
  "OPIS Truckstop ID": 460,
  "Truckstop Name": "TRUCK STOP 44",
  "Address": "I-20 EXIT 44",
  "City": "Gilbert",
  "State": "SC",
  "Rack ID": 135,
  "Retail Price": 3.079,
  "latitude": 33.9243121,
  "longitude": -81.3937132
},
{
  "_id": {
    "$oid": "679a98aba1745e2d73225ddd"
  },
  "OPIS Truckstop ID": 461,
  "Truckstop Name": "SPINX #271",
  "Address": "I-26, EXIT 145 & US-601",
  "City": "Orangeburg",
  "State": "SC",
  "Rack ID": 42,
  "Retail Price": 3.26233333,
  "latitude": 33.34650555,
  "longitude": -80.57809105
},
{
  "_id": {
    "$oid": "679a98aba1745e2d73225dde"
  },
  "OPIS Truckstop ID": 469,
  "Truckstop Name": "LOAF N JUG #750010",
  "Address": "US-160 & SR-17",
  "City": "Alamosa",
  "State": "CO",
  "Rack ID": 803,
  "Retail Price": 3.259,
  "latitude": 37.467099757249386,
  "longitude": -105.87521266578261
},
{
  "_id": {
    "$oid": "679a98aba1745e2d73225ddf"
  },
  "OPIS Truckstop ID": 474,
  "Truckstop Name": "KEWANEE 1 STOP",
  "Address": "I-20, EXIT 169 & US-80",
  "City": "Toomsuba",
  "State": "MS",
  "Rack ID": 705,
  "Retail Price": 3.299,
  "latitude": 32.411023275208585,
  "longitude": -88.47207163950452
},
{
  "_id": {
    "$oid": "679a98aba1745e2d73225de0"
  },
  "OPIS Truckstop ID": 478,
  "Truckstop Name": "GASTRAK OF PEMBINA",
  "Address": "I-29, EXIT 215",
  "City": "Pembina                                 ",
  "State": "ND",
  "Rack ID": 355,
  "Retail Price": 3.299,
  "latitude": 48.999589023834936,
  "longitude": -97.23900171371865
},
{
  "_id": {
    "$oid": "679a98aba1745e2d73225de1"
  },
  "OPIS Truckstop ID": 483,
  "Truckstop Name": "ALLSUPS #2387",
  "Address": "US-54/SR-136/SR-3 & US-64",
  "City": "Guymon",
  "State": "OK",
  "Rack ID": 585,
  "Retail Price": 2.97566666,
  "latitude": 36.6950528,
  "longitude": -101.46031205
},
{
  "_id": {
    "$oid": "679a98aba1745e2d73225de2"
  },
  "OPIS Truckstop ID": 486,
  "Truckstop Name": "LA NORIA CONV STORES",
  "Address": "I-35 N, EXIT 4",
  "City": "Laredo                                  ",
  "State": "TX",
  "Rack ID": 693,
  "Retail Price": 3.299,
  "latitude": 27.6062075,
  "longitude": -99.4946387
},
{
  "_id": {
    "$oid": "679a98aba1745e2d73225de3"
  },
  "OPIS Truckstop ID": 489,
  "Truckstop Name": "EDDIES CORNER",
  "Address": "US-87 & US-191",
  "City": "Moore",
  "State": "MT",
  "Rack ID": 815,
  "Retail Price": 3.749,
  "latitude": 46.975523,
  "longitude": -109.696854
},
{
  "_id": {
    "$oid": "679a98aba1745e2d73225de4"
  },
  "OPIS Truckstop ID": 491,
  "Truckstop Name": "One9 #403",
  "Address": "I-75, EXIT 117",
  "City": "Heiskell",
  "State": "TN",
  "Rack ID": 405,
  "Retail Price": 2.999,
  "latitude": 36.081816,
  "longitude": -84.0539821
},
{
  "_id": {
    "$oid": "679a98aba1745e2d73225de5"
  },
  "OPIS Truckstop ID": 496,
  "Truckstop Name": "PILOT TRAVEL CENTERS #270",
  "Address": "I-40 & I-75, EXIT 374",
  "City": "Knoxville",
  "State": "TN",
  "Rack ID": 405,
  "Retail Price": 3.439,
  "latitude": 35.94432845781384,
  "longitude": -83.99845133572647
},
{
  "_id": {
    "$oid": "679a98aba1745e2d73225de6"
  },
  "OPIS Truckstop ID": 509,
  "Truckstop Name": "LOVES TRAVEL STOPS #256",
  "Address": "I-10, EXIT 140B",
  "City": "Van Horn",
  "State": "TX",
  "Rack ID": 640,
  "Retail Price": 3.649,
  "latitude": 31.037688313477258,
  "longitude": -104.82404550151895
},
{
  "_id": {
    "$oid": "679a98aba1745e2d73225de7"
  },
  "OPIS Truckstop ID": 509,
  "Truckstop Name": "LOVES TRAVEL STOP #256",
  "Address": "I-10, EXIT 140B",
  "City": "Van Horn",
  "State": "TX",
  "Rack ID": 640,
  "Retail Price": 3.649,
  "latitude": 31.037688313477258,
  "longitude": -104.82404550151895
},
{
  "_id": {
    "$oid": "679a98aba1745e2d73225de8"
  },
  "OPIS Truckstop ID": 522,
  "Truckstop Name": "GO MART FOOD STORE #57",
  "Address": "I-70 & ST-285, EXIT 186",
  "City": "Lore City                               ",
  "State": "OH",
  "Rack ID": 430,
  "Retail Price": 3.179,
  "latitude": 39.9847938,
  "longitude": -81.4584523
},
{
  "_id": {
    "$oid": "679a98aba1745e2d73225de9"
  },
  "OPIS Truckstop ID": 523,
  "Truckstop Name": "CIRCLE K #2723322",
  "Address": "I-985, EXIT 20 & SR-60",
  "City": "Gainesville",
  "State": "GA",
  "Rack ID": 18,
  "Retail Price": 3.26566666,
  "latitude": 34.24022907945639,
  "longitude": -83.83979487763776
},
{
  "_id": {
    "$oid": "679a98aba1745e2d73225dea"
  },
  "OPIS Truckstop ID": 525,
  "Truckstop Name": "FASTBREAK",
  "Address": "US-45 ALT",
  "City": "West Point",
  "State": "MS",
  "Rack ID": 705,
  "Retail Price": 3.059,
  "latitude": 33.6076186,
  "longitude": -88.6503255
},
{
  "_id": {
    "$oid": "679a98aba1745e2d73225deb"
  },
  "OPIS Truckstop ID": 546,
  "Truckstop Name": "PLAZA 30",
  "Address": "US-30",
  "City": "Wanatah",
  "State": "IN",
  "Rack ID": 365,
  "Retail Price": 3.499,
  "latitude": 41.43402171838518,
  "longitude": -86.90423561528706
},
{
  "_id": {
    "$oid": "679a98aba1745e2d73225dec"
  },
  "OPIS Truckstop ID": 557,
  "Truckstop Name": "SAPP BROS TRAVEL CENTER",
  "Address": "I-80, EXIT 73",
  "City": "Peru",
  "State": "IL",
  "Rack ID": 290,
  "Retail Price": 3.389,
  "latitude": 41.3651916,
  "longitude": -89.13807525
},
{
  "_id": {
    "$oid": "679a98aba1745e2d73225ded"
  },
  "OPIS Truckstop ID": 557,
  "Truckstop Name": "SAPP BROS TRAVEL CENTER",
  "Address": "I-80, EXIT 73",
  "City": "Peru",
  "State": "IL",
  "Rack ID": 290,
  "Retail Price": 3.589,
  "latitude": 41.3651916,
  "longitude": -89.13807525
},
{
  "_id": {
    "$oid": "679a98aba1745e2d73225dee"
  },
  "OPIS Truckstop ID": 557,
  "Truckstop Name": "SAPP BROS TRAVEL CENTER",
  "Address": "I-80, EXIT 73",
  "City": "Peru",
  "State": "IL",
  "Rack ID": 290,
  "Retail Price": 3.449,
  "latitude": 41.3651916,
  "longitude": -89.13807525
},
{
  "_id": {
    "$oid": "679a98aba1745e2d73225def"
  },
  "OPIS Truckstop ID": 557,
  "Truckstop Name": "SAPP BROS TRAVEL CENTER",
  "Address": "I-80, EXIT 73",
  "City": "Peru",
  "State": "IL",
  "Rack ID": 290,
  "Retail Price": 3.289,
  "latitude": 41.3651916,
  "longitude": -89.13807525
},
{
  "_id": {
    "$oid": "679a98aba1745e2d73225df0"
  },
  "OPIS Truckstop ID": 559,
  "Truckstop Name": "SHELL MORGAN ROAD TRUCK STOP",
  "Address": "I-40, EXIT 142",
  "City": "Maumelle",
  "State": "AR",
  "Rack ID": 695,
  "Retail Price": 3.20733333,
  "latitude": 34.856613,
  "longitude": -92.4056858
},
{
  "_id": {
    "$oid": "679a98aba1745e2d73225df1"
  },
  "OPIS Truckstop ID": 566,
  "Truckstop Name": "TA GARY TRAVEL CENTER",
  "Address": "I-80/I-94, EXIT 6",
  "City": "Gary",
  "State": "IN",
  "Rack ID": 365,
  "Retail Price": 3.83066666,
  "latitude": 41.5729787,
  "longitude": -87.28099495
},
{
  "_id": {
    "$oid": "679a98aba1745e2d73225df2"
  },
  "OPIS Truckstop ID": 567,
  "Truckstop Name": "TA ELOY TRAVEL CENTER",
  "Address": "I-10 & I-8, EXIT 203",
  "City": "Eloy",
  "State": "AZ",
  "Rack ID": 930,
  "Retail Price": 3.459,
  "latitude": 32.754562777335174,
  "longitude": -111.58329513250789
},
{
  "_id": {
    "$oid": "679a98aba1745e2d73225df3"
  },
  "OPIS Truckstop ID": 572,
  "Truckstop Name": "PILOT TRAVEL CENTER #881",
  "Address": "I-69, EXIT 309A",
  "City": "Fort Wayne                              ",
  "State": "IN",
  "Rack ID": 370,
  "Retail Price": 3.899,
  "latitude": 41.17200694945744,
  "longitude": -85.1035531873312
},
{
  "_id": {
    "$oid": "679a98aba1745e2d73225df4"
  },
  "OPIS Truckstop ID": 572,
  "Truckstop Name": "PILOT TRAVEL CENTERS #881",
  "Address": "I-69, EXIT 309A",
  "City": "Fort Wayne                              ",
  "State": "IN",
  "Rack ID": 370,
  "Retail Price": 3.879,
  "latitude": 41.17200694945744,
  "longitude": -85.1035531873312
},
{
  "_id": {
    "$oid": "679a98aba1745e2d73225df5"
  },
  "OPIS Truckstop ID": 576,
  "Truckstop Name": "PETRO STOPPING CENTER #343",
  "Address": "I-10, EXIT 76",
  "City": "Egan",
  "State": "LA",
  "Rack ID": 600,
  "Retail Price": 3.624,
  "latitude": 30.231272907535875,
  "longitude": -92.50073256382078
},
{
  "_id": {
    "$oid": "679a98aba1745e2d73225df6"
  },
  "OPIS Truckstop ID": 578,
  "Truckstop Name": "LOVES TRAVEL STOP #449",
  "Address": "I-84, EXIT 17",
  "City": "Troutdale",
  "State": "OR",
  "Rack ID": 935,
  "Retail Price": 3.779,
  "latitude": 45.54442176756391,
  "longitude": -122.40317821024986
},
{
  "_id": {
    "$oid": "679a98aba1745e2d73225df7"
  },
  "OPIS Truckstop ID": 579,
  "Truckstop Name": "FLYING J TRAVEL PLAZA #764",
  "Address": "I-80, EXIT 104 & US-191",
  "City": "Rock Springs",
  "State": "WY",
  "Rack ID": 835,
  "Retail Price": 3.67066666,
  "latitude": 41.60415951575004,
  "longitude": -109.20504758493922
},
{
  "_id": {
    "$oid": "679a98aba1745e2d73225df8"
  },
  "OPIS Truckstop ID": 586,
  "Truckstop Name": "AMERISTAR TRAVEL PLAZA #120",
  "Address": "I-82, EXIT 80",
  "City": "Prosser",
  "State": "WA",
  "Rack ID": 925,
  "Retail Price": 4.399,
  "latitude": 46.22145694639987,
  "longitude": -119.77457221542493
},
{
  "_id": {
    "$oid": "679a98aba1745e2d73225df9"
  },
  "OPIS Truckstop ID": 586,
  "Truckstop Name": "AMERISTAR TRAVEL PLAZA #120",
  "Address": "I-82, EXIT 80",
  "City": "Prosser",
  "State": "WA",
  "Rack ID": 925,
  "Retail Price": 4.559,
  "latitude": 46.22145694639987,
  "longitude": -119.77457221542493
},
{
  "_id": {
    "$oid": "679a98aba1745e2d73225dfa"
  },
  "OPIS Truckstop ID": 588,
  "Truckstop Name": "TA TUSCALOOSA TRAVEL CENTER",
  "Address": "I-20/I-59, EXIT 77",
  "City": "Cottondale",
  "State": "AL",
  "Rack ID": 615,
  "Retail Price": 2.964,
  "latitude": 33.1895629,
  "longitude": -87.4516703
},
{
  "_id": {
    "$oid": "679a98aba1745e2d73225dfb"
  },
  "OPIS Truckstop ID": 591,
  "Truckstop Name": "TA Concordia Travel Plaza",
  "Address": "I-70, EXIT 58 & SR-23",
  "City": "Concordia",
  "State": "MO",
  "Rack ID": 400,
  "Retail Price": 3.22566666,
  "latitude": 38.99182025,
  "longitude": -93.56778510000001
},
{
  "_id": {
    "$oid": "679a98aba1745e2d73225dfc"
  },
  "OPIS Truckstop ID": 599,
  "Truckstop Name": "Sapp Bros Travel Center",
  "Address": "I-80, EXIT 59 & SR-17J",
  "City": "Sidney",
  "State": "NE",
  "Rack ID": 475,
  "Retail Price": 3.50066666,
  "latitude": 41.11322638233195,
  "longitude": -102.9613060434769
},
{
  "_id": {
    "$oid": "679a98aba1745e2d73225dfd"
  },
  "OPIS Truckstop ID": 602,
  "Truckstop Name": "JIFFY MART EXIT 18 TRUCK STOP",
  "Address": "I-89/SR-120, EXIT 18 & SR-120",
  "City": "Lebanon",
  "State": "NH",
  "Rack ID": 12,
  "Retail Price": 3.599,
  "latitude": 43.63781494782188,
  "longitude": -72.21308994424699
},
{
  "_id": {
    "$oid": "679a98aba1745e2d73225dfe"
  },
  "OPIS Truckstop ID": 614,
  "Truckstop Name": "TA MAYBROOK TRAVEL CENTER",
  "Address": "I-84, EXIT 5",
  "City": "Montgomery",
  "State": "NY",
  "Rack ID": 120,
  "Retail Price": 4.359,
  "latitude": 41.51347296192407,
  "longitude": -74.12358480055984
},
{
  "_id": {
    "$oid": "679a98aba1745e2d73225dff"
  },
  "OPIS Truckstop ID": 628,
  "Truckstop Name": "KWIK FILL #227",
  "Address": "I-90,  EXIT 218",
  "City": "Geneva",
  "State": "OH",
  "Rack ID": 305,
  "Retail Price": 3.15233333,
  "latitude": 41.8052539,
  "longitude": -80.9476206
},
{
  "_id": {
    "$oid": "679a98aba1745e2d73225e00"
  },
  "OPIS Truckstop ID": 629,
  "Truckstop Name": "FLYING J #850",
  "Address": "TCH-16",
  "City": "Edmonton",
  "State": "AB",
  "Rack ID": 80,
  "Retail Price": 4.39948962,
  "latitude": 36.9602321543433,
  "longitude": -85.61308179874064
},
{
  "_id": {
    "$oid": "679a98aba1745e2d73225e01"
  },
  "OPIS Truckstop ID": 629,
  "Truckstop Name": "FLYING J #850",
  "Address": "TCH-16",
  "City": "Edmonton",
  "State": "AB",
  "Rack ID": 80,
  "Retail Price": 4.39625375,
  "latitude": 36.94062348670251,
  "longitude": -85.61097583234617
},
{
  "_id": {
    "$oid": "679a98aba1745e2d73225e02"
  },
  "OPIS Truckstop ID": 629,
  "Truckstop Name": "FLYING J #850",
  "Address": "TCH-16",
  "City": "Edmonton",
  "State": "AB",
  "Rack ID": 80,
  "Retail Price": 4.40695023,
  "latitude": 37.05988012608732,
  "longitude": -85.61310568177689
},
{
  "_id": {
    "$oid": "679a98aba1745e2d73225e03"
  },
  "OPIS Truckstop ID": 629,
  "Truckstop Name": "FLYING J #850",
  "Address": "TCH-16",
  "City": "Edmonton",
  "State": "AB",
  "Rack ID": 80,
  "Retail Price": 4.40630048,
  "latitude": 36.926428421453025,
  "longitude": -85.6116442326816
},
{
  "_id": {
    "$oid": "679a98aba1745e2d73225e04"
  },
  "OPIS Truckstop ID": 629,
  "Truckstop Name": "FLYING J #850",
  "Address": "TCH-16",
  "City": "Edmonton",
  "State": "AB",
  "Rack ID": 80,
  "Retail Price": 4.39722401,
  "latitude": 37.06236649008943,
  "longitude": -85.61178052025491
},
{
  "_id": {
    "$oid": "679a98aba1745e2d73225e05"
  },
  "OPIS Truckstop ID": 629,
  "Truckstop Name": "FLYING J #850",
  "Address": "TCH-16",
  "City": "Edmonton",
  "State": "AB",
  "Rack ID": 80,
  "Retail Price": 4.3981947,
  "latitude": 36.998081518136445,
  "longitude": -85.61454706296433
},
{
  "_id": {
    "$oid": "679a98aba1745e2d73225e06"
  },
  "OPIS Truckstop ID": 636,
  "Truckstop Name": "UNION 76",
  "Address": "I-5, EXIT 233 E",
  "City": "Albany",
  "State": "OR",
  "Rack ID": 935,
  "Retail Price": 3.379,
  "latitude": 44.620664667590866,
  "longitude": -123.06185387171371
},
{
  "_id": {
    "$oid": "679a98aba1745e2d73225e07"
  },
  "OPIS Truckstop ID": 651,
  "Truckstop Name": "ONE9 #1366",
  "Address": "I-40, EXIT 126 & US-641",
  "City": "Holladay",
  "State": "TN",
  "Rack ID": 460,
  "Retail Price": 2.98566666,
  "latitude": 36.13616728516393,
  "longitude": -85.54926055240647
},
{
  "_id": {
    "$oid": "679a98aba1745e2d73225e08"
  },
  "OPIS Truckstop ID": 652,
  "Truckstop Name": "TA KNOXVILLE EAST TRAVEL CENTER",
  "Address": "I-40 & I-75, EXIT 374",
  "City": "Knoxville",
  "State": "TN",
  "Rack ID": 405,
  "Retail Price": 3.42566666,
  "latitude": 35.94432845781384,
  "longitude": -83.99845133572647
},
{
  "_id": {
    "$oid": "679a98aba1745e2d73225e09"
  },
  "OPIS Truckstop ID": 659,
  "Truckstop Name": "FLYING J #869",
  "Address": "HWY 2 SOUTH",
  "City": "Nanton",
  "State": "AB",
  "Rack ID": 50,
  "Retail Price": 4.39948962,
  "latitude": null,
  "longitude": null
},
{
  "_id": {
    "$oid": "679a98aba1745e2d73225e0a"
  },
  "OPIS Truckstop ID": 659,
  "Truckstop Name": "FLYING J #869",
  "Address": "HWY 2 SOUTH",
  "City": "Nanton",
  "State": "AB",
  "Rack ID": 50,
  "Retail Price": 4.59317483,
  "latitude": null,
  "longitude": null
},
{
  "_id": {
    "$oid": "679a98aba1745e2d73225e0b"
  },
  "OPIS Truckstop ID": 659,
  "Truckstop Name": "FLYING J #869",
  "Address": "HWY 2 SOUTH",
  "City": "Nanton",
  "State": "AB",
  "Rack ID": 50,
  "Retail Price": 4.59114784,
  "latitude": null,
  "longitude": null
},
{
  "_id": {
    "$oid": "679a98aba1745e2d73225e0c"
  },
  "OPIS Truckstop ID": 659,
  "Truckstop Name": "FLYING J #869",
  "Address": "HWY 2 SOUTH",
  "City": "Nanton",
  "State": "AB",
  "Rack ID": 50,
  "Retail Price": 4.60163996,
  "latitude": null,
  "longitude": null
},
{
  "_id": {
    "$oid": "679a98aba1745e2d73225e0d"
  },
  "OPIS Truckstop ID": 659,
  "Truckstop Name": "FLYING J #869",
  "Address": "HWY 2 SOUTH",
  "City": "Nanton",
  "State": "AB",
  "Rack ID": 50,
  "Retail Price": 4.59216111,
  "latitude": null,
  "longitude": null
},
{
  "_id": {
    "$oid": "679a98aba1745e2d73225e0e"
  },
  "OPIS Truckstop ID": 659,
  "Truckstop Name": "FLYING J #869",
  "Address": "HWY 2 SOUTH",
  "City": "Nanton",
  "State": "AB",
  "Rack ID": 50,
  "Retail Price": 4.60231851,
  "latitude": null,
  "longitude": null
},
{
  "_id": {
    "$oid": "679a98aba1745e2d73225e0f"
  },
  "OPIS Truckstop ID": 669,
  "Truckstop Name": "PETRO STOPPING CENTER #350",
  "Address": "I-10,  EXIT 4",
  "City": "Canutillo",
  "State": "TX",
  "Rack ID": 640,
  "Retail Price": 3.499,
  "latitude": 31.9124684,
  "longitude": -106.598098
},
{
  "_id": {
    "$oid": "679a98aba1745e2d73225e10"
  },
  "OPIS Truckstop ID": 672,
  "Truckstop Name": "CROWN POINT TRUCK STOP",
  "Address": "I-295/US-130,EXIT 22",
  "City": "Thorofare",
  "State": "NJ",
  "Rack ID": 150,
  "Retail Price": 3.549,
  "latitude": 39.836592924618145,
  "longitude": -75.20243633743273
},
{
  "_id": {
    "$oid": "679a98aba1745e2d73225e11"
  },
  "OPIS Truckstop ID": 680,
  "Truckstop Name": "TA EXPRESS SUMMIT",
  "Address": "I-29, EXIT 207 & US-12",
  "City": "Summit",
  "State": "SD",
  "Rack ID": 566,
  "Retail Price": 3.20566666,
  "latitude": 45.304406,
  "longitude": -97.036466
},
{
  "_id": {
    "$oid": "679a98aba1745e2d73225e12"
  },
  "OPIS Truckstop ID": 684,
  "Truckstop Name": "7-ELEVEN #35101",
  "Address": "I-86/SR-17, EXIT 16",
  "City": "Randolph",
  "State": "NY",
  "Rack ID": 38,
  "Retail Price": 4.499,
  "latitude": 42.16248571705137,
  "longitude": -79.01115622588553
},
{
  "_id": {
    "$oid": "679a98aba1745e2d73225e13"
  },
  "OPIS Truckstop ID": 689,
  "Truckstop Name": "FLYING EAGLE",
  "Address": "I-235, EXIT 4",
  "City": "Wichita",
  "State": "KS",
  "Rack ID": 570,
  "Retail Price": 3.499,
  "latitude": 37.719524280324876,
  "longitude": -97.39294735936062
},
{
  "_id": {
    "$oid": "679a98aba1745e2d73225e14"
  },
  "OPIS Truckstop ID": 692,
  "Truckstop Name": "BP",
  "Address": "US-63",
  "City": "Ottumwa",
  "State": "IA",
  "Rack ID": 489,
  "Retail Price": 3.399,
  "latitude": 40.998443136492256,
  "longitude": -92.40479946790012
},
{
  "_id": {
    "$oid": "679a98aba1745e2d73225e15"
  },
  "OPIS Truckstop ID": 739,
  "Truckstop Name": "Arco #364420",
  "Address": "US-23",
  "City": "Greenup",
  "State": "KY",
  "Rack ID": 255,
  "Retail Price": 3.649,
  "latitude": 38.7269728,
  "longitude": -82.99746300000001
},
{
  "_id": {
    "$oid": "679a98aba1745e2d73225e16"
  },
  "OPIS Truckstop ID": 748,
  "Truckstop Name": "QUIKTRIP #4231",
  "Address": "US-85",
  "City": "Evans",
  "State": "CO",
  "Rack ID": 800,
  "Retail Price": 3.17233333,
  "latitude": 40.38151060199597,
  "longitude": -104.69200214672608
},
{
  "_id": {
    "$oid": "679a98aba1745e2d73225e17"
  },
  "OPIS Truckstop ID": 769,
  "Truckstop Name": "AYERCO #26",
  "Address": "US-61/US-136",
  "City": "Alexandria",
  "State": "MO",
  "Rack ID": 345,
  "Retail Price": 3.01566666,
  "latitude": 40.370188604779585,
  "longitude": -91.45157862545939
},
{
  "_id": {
    "$oid": "679a98aba1745e2d73225e18"
  },
  "OPIS Truckstop ID": 815,
  "Truckstop Name": "Kwik Trip #1508",
  "Address": "US-18/SR-151, EXIT 58",
  "City": "Barneveld",
  "State": "WI",
  "Rack ID": 420,
  "Retail Price": 3.489,
  "latitude": 43.00971113394405,
  "longitude": -89.90633104939909
},
{
  "_id": {
    "$oid": "679a98aba1745e2d73225e19"
  },
  "OPIS Truckstop ID": 855,
  "Truckstop Name": "SPEEDWAY #7459",
  "Address": "US-41 & SR-137",
  "City": "North Chicago",
  "State": "IL",
  "Rack ID": 293,
  "Retail Price": 3.379,
  "latitude": 41.907460549253265,
  "longitude": -87.62548041288545
},
{
  "_id": {
    "$oid": "679a98aba1745e2d73225e1a"
  },
  "OPIS Truckstop ID": 855,
  "Truckstop Name": "SPEEDWAY #7459",
  "Address": "US-41 & SR-137",
  "City": "North Chicago",
  "State": "IL",
  "Rack ID": 293,
  "Retail Price": 3.499,
  "latitude": 41.907460549253265,
  "longitude": -87.62548041288545
},
{
  "_id": {
    "$oid": "679a98aba1745e2d73225e1b"
  },
  "OPIS Truckstop ID": 855,
  "Truckstop Name": "SPEEDWAY #7459",
  "Address": "US-41 & SR-137",
  "City": "North Chicago",
  "State": "IL",
  "Rack ID": 293,
  "Retail Price": 3.289,
  "latitude": 41.907460549253265,
  "longitude": -87.62548041288545
},
{
  "_id": {
    "$oid": "679a98aba1745e2d73225e1c"
  },
  "OPIS Truckstop ID": 863,
  "Truckstop Name": "Ocean Fuel",
  "Address": "US-301/SR-73",
  "City": "Sylvania",
  "State": "GA",
  "Rack ID": 195,
  "Retail Price": 3.499,
  "latitude": 32.744929075174596,
  "longitude": -81.65940849572517
},
{
  "_id": {
    "$oid": "679a98aba1745e2d73225e1d"
  },
  "OPIS Truckstop ID": 906,
  "Truckstop Name": "PILOT TRAVEL CENTERS #429",
  "Address": "I-40, EXIT 280",
  "City": "West Memphis",
  "State": "AR",
  "Rack ID": 435,
  "Retail Price": 3.499,
  "latitude": 35.16196826336555,
  "longitude": -90.22050734545581
},
{
  "_id": {
    "$oid": "679a98aba1745e2d73225e1e"
  },
  "OPIS Truckstop ID": 906,
  "Truckstop Name": "PILOT TRAVEL CENTER #429",
  "Address": "I-40, EXIT 280",
  "City": "West Memphis",
  "State": "AR",
  "Rack ID": 435,
  "Retail Price": 3.291,
  "latitude": 35.16196826336555,
  "longitude": -90.22050734545581
},
{
  "_id": {
    "$oid": "679a98aba1745e2d73225e1f"
  },
  "OPIS Truckstop ID": 908,
  "Truckstop Name": "CIRCLE K #2704888",
  "Address": "I-65, EXIT 246 & SR-119",
  "City": "Pelham",
  "State": "AL",
  "Rack ID": 615,
  "Retail Price": 3.46566666,
  "latitude": 33.347528403222015,
  "longitude": -86.7804406887288
},
{
  "_id": {
    "$oid": "679a98aba1745e2d73225e20"
  },
  "OPIS Truckstop ID": 912,
  "Truckstop Name": "PETRO STOPPING CENTER #319",
  "Address": "I-20/59,  EXIT 100",
  "City": "Mc Calla",
  "State": "AL",
  "Rack ID": 615,
  "Retail Price": 3.12566666,
  "latitude": 40.80200953996001,
  "longitude": -80.54335812686075
},
{
  "_id": {
    "$oid": "679a98aba1745e2d73225e21"
  },
  "OPIS Truckstop ID": 936,
  "Truckstop Name": "CASEYS #4254",
  "Address": "I-40, EXIT 129",
  "City": "Conway",
  "State": "AR",
  "Rack ID": 695,
  "Retail Price": 3.03233333,
  "latitude": 35.12056755549812,
  "longitude": -92.48198010898406
},
{
  "_id": {
    "$oid": "679a98aba1745e2d73225e22"
  },
  "OPIS Truckstop ID": 970,
  "Truckstop Name": "CIRCLE K #2702885",
  "Address": "I-17/SR-60, EXIT 199A",
  "City": "Phoenix",
  "State": "AZ",
  "Rack ID": 930,
  "Retail Price": 3.39233333,
  "latitude": 33.48726604438687,
  "longitude": -112.11317537609138
},
{
  "_id": {
    "$oid": "679a98aba1745e2d73225e23"
  },
  "OPIS Truckstop ID": 977,
  "Truckstop Name": "PILOT TRAVEL CENTER #328",
  "Address": "I-10, EXIT 17",
  "City": "Quartzsite",
  "State": "AZ",
  "Rack ID": 930,
  "Retail Price": 3.959,
  "latitude": 33.66120255750206,
  "longitude": -114.23181552996019
},
{
  "_id": {
    "$oid": "679a98aba1745e2d73225e24"
  },
  "OPIS Truckstop ID": 977,
  "Truckstop Name": "PILOT TRAVEL CENTERS #328",
  "Address": "I-10, EXIT 17",
  "City": "Quartzsite",
  "State": "AZ",
  "Rack ID": 930,
  "Retail Price": 3.959,
  "latitude": 33.66120255750206,
  "longitude": -114.23181552996019
},
{
  "_id": {
    "$oid": "679a98aba1745e2d73225e25"
  },
  "OPIS Truckstop ID": 981,
  "Truckstop Name": "STINKER #85",
  "Address": "I-15, EXIT 93",
  "City": "Blackfoot",
  "State": "ID",
  "Rack ID": 825,
  "Retail Price": 3.53233333,
  "latitude": 43.2004115,
  "longitude": -112.36255025
},
{
  "_id": {
    "$oid": "679a98aba1745e2d73225e26"
  },
  "OPIS Truckstop ID": 982,
  "Truckstop Name": "CIRCLE K #2701948",
  "Address": "I-8, EXIT 7 & SR-195",
  "City": "Yuma",
  "State": "AZ",
  "Rack ID": 900,
  "Retail Price": 3.56566666,
  "latitude": 32.67583468346336,
  "longitude": -114.4980599874383
},
{
  "_id": {
    "$oid": "679a98aba1745e2d73225e27"
  },
  "OPIS Truckstop ID": 1028,
  "Truckstop Name": "FOUR STATES TRUCK STOP",
  "Address": "I-495, EXIT 4 & SR-9",
  "City": "New Castle",
  "State": "DE",
  "Rack ID": 243,
  "Retail Price": 3.449,
  "latitude": 39.73162738446994,
  "longitude": -75.52563528377482
},
{
  "_id": {
    "$oid": "679a98aba1745e2d73225e28"
  },
  "OPIS Truckstop ID": 1028,
  "Truckstop Name": "FOUR STATES TRUCK STOP",
  "Address": "I-495, EXIT 4 & SR-9",
  "City": "New Castle",
  "State": "DE",
  "Rack ID": 243,
  "Retail Price": 3.399,
  "latitude": 39.73162738446994,
  "longitude": -75.52563528377482
},
{
  "_id": {
    "$oid": "679a98aba1745e2d73225e29"
  },
  "OPIS Truckstop ID": 1042,
  "Truckstop Name": "Union 76",
  "Address": "US-441 & SR-100A",
  "City": "Lake City",
  "State": "FL",
  "Rack ID": 75,
  "Retail Price": 3.56233333,
  "latitude": 30.166037716066114,
  "longitude": -82.63806325309598
},
{
  "_id": {
    "$oid": "679a98aba1745e2d73225e2a"
  },
  "OPIS Truckstop ID": 1043,
  "Truckstop Name": "ONE9 #1401",
  "Address": "I-75 EXIT 414  & US-41",
  "City": "Lake City",
  "State": "FL",
  "Rack ID": 75,
  "Retail Price": 3.259,
  "latitude": 30.1799274,
  "longitude": -82.6885099
},
{
  "_id": {
    "$oid": "679a98aba1745e2d73225e2b"
  },
  "OPIS Truckstop ID": 1043,
  "Truckstop Name": "SHELL DBA ONE9 #1401",
  "Address": "I-75 EXIT 414  & US-41",
  "City": "Lake City",
  "State": "FL",
  "Rack ID": 75,
  "Retail Price": 3.244,
  "latitude": 30.1799274,
  "longitude": -82.6885099
},
{
  "_id": {
    "$oid": "679a98aba1745e2d73225e2c"
  },
  "OPIS Truckstop ID": 1047,
  "Truckstop Name": "TA MARIANNA TRAVEL CENTER",
  "Address": "I-10/SR-8, EXIT 142 & SR-71",
  "City": "Marianna",
  "State": "FL",
  "Rack ID": 20,
  "Retail Price": 3.60733333,
  "latitude": 30.75329585,
  "longitude": -85.2725491
},
{
  "_id": {
    "$oid": "679a98aba1745e2d73225e2d"
  },
  "OPIS Truckstop ID": 1075,
  "Truckstop Name": "PILOT TRAVEL CENTER #68",
  "Address": "I-16 /SR-404, EXIT 51 & US-441",
  "City": "Dublin",
  "State": "GA",
  "Rack ID": 85,
  "Retail Price": 3.43233333,
  "latitude": 32.49383018149783,
  "longitude": -82.96303094883208
},
{
  "_id": {
    "$oid": "679a98aba1745e2d73225e2e"
  },
  "OPIS Truckstop ID": 1075,
  "Truckstop Name": "PILOT TRAVEL CENTERS #68",
  "Address": "I-16 /SR-404, EXIT 51 & US-441",
  "City": "Dublin",
  "State": "GA",
  "Rack ID": 85,
  "Retail Price": 3.399,
  "latitude": 32.49383018149783,
  "longitude": -82.96303094883208
},
{
  "_id": {
    "$oid": "679a98aba1745e2d73225e2f"
  },
  "OPIS Truckstop ID": 1106,
  "Truckstop Name": "CIRCLE K #2705367",
  "Address": "I-20, EXIT 172",
  "City": "Thomson",
  "State": "GA",
  "Rack ID": 16,
  "Retail Price": 3.399,
  "latitude": 33.4663248,
  "longitude": -82.5026089
},
{
  "_id": {
    "$oid": "679a98aba1745e2d73225e30"
  },
  "OPIS Truckstop ID": 1112,
  "Truckstop Name": "BC AMPRIDE TRUCK PLAZA",
  "Address": "US-59/SR-141",
  "City": "Denison",
  "State": "IA",
  "Rack ID": 527,
  "Retail Price": 3.399,
  "latitude": 42.0100659,
  "longitude": -95.36569180000001
},
{
  "_id": {
    "$oid": "679a98aba1745e2d73225e31"
  },
  "OPIS Truckstop ID": 1115,
  "Truckstop Name": "KWIK STAR #704",
  "Address": "SR-57/SR-14",
  "City": "Parkersburg",
  "State": "IA",
  "Rack ID": 565,
  "Retail Price": 3.58233333,
  "latitude": 42.59828405250345,
  "longitude": -92.78553434674323
},
{
  "_id": {
    "$oid": "679a98aba1745e2d73225e32"
  },
  "OPIS Truckstop ID": 1121,
  "Truckstop Name": "TRAVELERS OASIS",
  "Address": "I-84, EXIT 182",
  "City": "Eden",
  "State": "ID",
  "Rack ID": 787,
  "Retail Price": 3.799,
  "latitude": 42.6059001,
  "longitude": -114.209645
},
{
  "_id": {
    "$oid": "679a98aba1745e2d73225e33"
  },
  "OPIS Truckstop ID": 1128,
  "Truckstop Name": "TA CHICAGO NORTH TRAVEL CENTER",
  "Address": "I-94/US-41, EXIT 1",
  "City": "Wadsworth",
  "State": "IL",
  "Rack ID": 444,
  "Retail Price": 3.819,
  "latitude": 42.47783305,
  "longitude": -87.95020009999999
},
{
  "_id": {
    "$oid": "679a98aba1745e2d73225e34"
  },
  "OPIS Truckstop ID": 1128,
  "Truckstop Name": "TA CHICAGO NORTH TRAVEL CENTER",
  "Address": "I-94/US-41, EXIT 1",
  "City": "Wadsworth",
  "State": "IL",
  "Rack ID": 444,
  "Retail Price": 3.879,
  "latitude": 42.47783305,
  "longitude": -87.95020009999999
},
{
  "_id": {
    "$oid": "679a98aba1745e2d73225e35"
  },
  "OPIS Truckstop ID": 1128,
  "Truckstop Name": "TA CHICAGO NORTH TRAVEL CENTER",
  "Address": "I-94/US-41, EXIT 1",
  "City": "Wadsworth",
  "State": "IL",
  "Rack ID": 444,
  "Retail Price": 3.779,
  "latitude": 42.47783305,
  "longitude": -87.95020009999999
},
{
  "_id": {
    "$oid": "679a98aba1745e2d73225e36"
  },
  "OPIS Truckstop ID": 1128,
  "Truckstop Name": "TA CHICAGO NORTH TRAVEL CENTER",
  "Address": "I-94/US-41, EXIT 1",
  "City": "Wadsworth",
  "State": "IL",
  "Rack ID": 444,
  "Retail Price": 3.769,
  "latitude": 42.47783305,
  "longitude": -87.95020009999999
},
{
  "_id": {
    "$oid": "679a98aba1745e2d73225e37"
  },
  "OPIS Truckstop ID": 1132,
  "Truckstop Name": "SPEEDWAY #7423",
  "Address": "I-57, EXIT 83",
  "City": "Ina",
  "State": "IL",
  "Rack ID": 293,
  "Retail Price": 3.249,
  "latitude": 38.15677729554519,
  "longitude": -88.91361371213449
},
{
  "_id": {
    "$oid": "679a98aba1745e2d73225e38"
  },
  "OPIS Truckstop ID": 1136,
  "Truckstop Name": "PILOT TRAVEL CENTER #171",
  "Address": "I-74, EXIT 206",
  "City": "Oakwood",
  "State": "IL",
  "Rack ID": 280,
  "Retail Price": 3.399,
  "latitude": 40.12617375432213,
  "longitude": -87.79603364499027
},
{
  "_id": {
    "$oid": "679a98aba1745e2d73225e39"
  },
  "OPIS Truckstop ID": 1136,
  "Truckstop Name": "PILOT TRAVEL CENTER #171",
  "Address": "I-74, EXIT 206",
  "City": "Oakwood",
  "State": "IL",
  "Rack ID": 280,
  "Retail Price": 3.499,
  "latitude": 40.12617375432213,
  "longitude": -87.79603364499027
},
{
  "_id": {
    "$oid": "679a98aba1745e2d73225e3a"
  },
  "OPIS Truckstop ID": 1136,
  "Truckstop Name": "PILOT TRAVEL CENTER #171",
  "Address": "I-74, EXIT 206",
  "City": "Oakwood",
  "State": "IL",
  "Rack ID": 280,
  "Retail Price": 3.599,
  "latitude": 40.12617375432213,
  "longitude": -87.79603364499027
},
{
  "_id": {
    "$oid": "679a98aba1745e2d73225e3b"
  },
  "OPIS Truckstop ID": 1140,
  "Truckstop Name": "CIRCLE K #4701398",
  "Address": "I-55, EXIT 82 & SR-104",
  "City": "Divernon",
  "State": "IL",
  "Rack ID": 280,
  "Retail Price": 3.499,
  "latitude": 39.56966154964778,
  "longitude": -89.64644365987677
},
{
  "_id": {
    "$oid": "679a98aba1745e2d73225e3c"
  },
  "OPIS Truckstop ID": 1149,
  "Truckstop Name": "PILOT TRAVEL CENTER #30",
  "Address": "I-70, EXIT 96",
  "City": "Greenfield",
  "State": "IN",
  "Rack ID": 375,
  "Retail Price": 3.959,
  "latitude": 39.82052290887271,
  "longitude": -85.79690814140007
},
{
  "_id": {
    "$oid": "679a98aba1745e2d73225e3d"
  },
  "OPIS Truckstop ID": 1149,
  "Truckstop Name": "PILOT TRAVEL CENTERS #30",
  "Address": "I-70, EXIT 96",
  "City": "Greenfield",
  "State": "IN",
  "Rack ID": 375,
  "Retail Price": 3.959,
  "latitude": 39.82052290887271,
  "longitude": -85.79690814140007
},
{
  "_id": {
    "$oid": "679a98aba1745e2d73225e3e"
  },
  "OPIS Truckstop ID": 1151,
  "Truckstop Name": "SPEEDWAY #8061",
  "Address": "I-70, EXIT 115 & SR-109",
  "City": "Knightstown",
  "State": "IN",
  "Rack ID": 375,
  "Retail Price": 3.759,
  "latitude": 39.7956007,
  "longitude": -85.5263629
},
{
  "_id": {
    "$oid": "679a98aba1745e2d73225e3f"
  },
  "OPIS Truckstop ID": 1154,
  "Truckstop Name": "CIRCLE K #2704691",
  "Address": "SR-71 & CR-214",
  "City": "Cedar Creek",
  "State": "TX",
  "Rack ID": 595,
  "Retail Price": 3.199,
  "latitude": 32.830208468125456,
  "longitude": -98.58983022052725
},
{
  "_id": {
    "$oid": "679a98aba1745e2d73225e40"
  },
  "OPIS Truckstop ID": 1156,
  "Truckstop Name": "CIRCLE K #4700028",
  "Address": "I-74/US-421, EXIT 116 & SR-44",
  "City": "Shelbyville",
  "State": "IN",
  "Rack ID": 375,
  "Retail Price": 3.599,
  "latitude": 39.52879040870675,
  "longitude": -85.74136734386245
},
{
  "_id": {
    "$oid": "679a98aba1745e2d73225e41"
  },
  "OPIS Truckstop ID": 1157,
  "Truckstop Name": "One9 #297",
  "Address": "I-70, EXIT 11 & SR-46",
  "City": "Terre Haute                             ",
  "State": "IN",
  "Rack ID": 510,
  "Retail Price": 3.43566666,
  "latitude": 39.43852109913613,
  "longitude": -87.43352752680825
},
{
  "_id": {
    "$oid": "679a98aba1745e2d73225e42"
  },
  "OPIS Truckstop ID": 1158,
  "Truckstop Name": "PILOT TRAVEL CENTERS #36",
  "Address": "US-30  & SR-49",
  "City": "Valparaiso",
  "State": "IN",
  "Rack ID": 365,
  "Retail Price": 3.869,
  "latitude": 41.47001795,
  "longitude": -87.0724516
},
{
  "_id": {
    "$oid": "679a98aba1745e2d73225e43"
  },
  "OPIS Truckstop ID": 1158,
  "Truckstop Name": "PILOT TRAVEL CENTER #36",
  "Address": "US-30  & SR-49",
  "City": "Valparaiso",
  "State": "IN",
  "Rack ID": 365,
  "Retail Price": 3.859,
  "latitude": 41.47001795,
  "longitude": -87.0724516
},
{
  "_id": {
    "$oid": "679a98aba1745e2d73225e44"
  },
  "OPIS Truckstop ID": 1163,
  "Truckstop Name": "SHORT STOP #13",
  "Address": "US-54",
  "City": "Emporia",
  "State": "KS",
  "Rack ID": 553,
  "Retail Price": 2.839,
  "latitude": 38.4040054,
  "longitude": -96.181623
},
{
  "_id": {
    "$oid": "679a98aba1745e2d73225e45"
  },
  "OPIS Truckstop ID": 1176,
  "Truckstop Name": "PILOT TRAVEL CENTERS #353",
  "Address": "I-75, EXIT 129",
  "City": "Georgetown",
  "State": "KY",
  "Rack ID": 410,
  "Retail Price": 3.20566666,
  "latitude": 38.25024171837951,
  "longitude": -84.54787236301628
},
{
  "_id": {
    "$oid": "679a98aba1745e2d73225e46"
  },
  "OPIS Truckstop ID": 1179,
  "Truckstop Name": "PILOT TRAVEL CENTERS #399",
  "Address": "I-65, EXIT 105",
  "City": "Lebanon Junction",
  "State": "KY",
  "Rack ID": 415,
  "Retail Price": 3.609,
  "latitude": 37.835663280614725,
  "longitude": -85.71742152292163
},
{
  "_id": {
    "$oid": "679a98aba1745e2d73225e47"
  },
  "OPIS Truckstop ID": 1196,
  "Truckstop Name": "SOUTHERN BELLE TRUCK STOP",
  "Address": "US-61 & SR-964",
  "City": "Saint Francisville",
  "State": "LA",
  "Rack ID": 725,
  "Retail Price": 3.384,
  "latitude": 30.789216523118213,
  "longitude": -91.37733274847818
},
{
  "_id": {
    "$oid": "679a98aba1745e2d73225e48"
  },
  "OPIS Truckstop ID": 1199,
  "Truckstop Name": "ALLTOWN MARKETS #306",
  "Address": "I-190, EXIT 7",
  "City": "Leominster",
  "State": "MA",
  "Rack ID": 178,
  "Retail Price": 3.68233333,
  "latitude": 42.52552987941165,
  "longitude": -71.73051510450658
},
{
  "_id": {
    "$oid": "679a98aba1745e2d73225e49"
  },
  "OPIS Truckstop ID": 1202,
  "Truckstop Name": "ONE9 #290",
  "Address": "I-95, EXIT 93 & SR-222",
  "City": "Perryville",
  "State": "MD",
  "Rack ID": 22,
  "Retail Price": 3.599,
  "latitude": 39.59448593876837,
  "longitude": -76.06436829759174
},
{
  "_id": {
    "$oid": "679a98aba1745e2d73225e4a"
  },
  "OPIS Truckstop ID": 1204,
  "Truckstop Name": "PETRO STOPPING CENTER #321",
  "Address": "I-70 & I-57, EXIT 159",
  "City": "Effingham",
  "State": "IL",
  "Rack ID": 574,
  "Retail Price": 3.549,
  "latitude": 39.13697459205623,
  "longitude": -88.56072412892057
},
{
  "_id": {
    "$oid": "679a98aba1745e2d73225e4b"
  },
  "OPIS Truckstop ID": 1204,
  "Truckstop Name": "PETRO STOPPING CENTER #321",
  "Address": "I-70 & I-57, EXIT 159",
  "City": "Effingham",
  "State": "IL",
  "Rack ID": 574,
  "Retail Price": 3.349,
  "latitude": 39.13697459205623,
  "longitude": -88.56072412892057
},
{
  "_id": {
    "$oid": "679a98aba1745e2d73225e4c"
  },
  "OPIS Truckstop ID": 1204,
  "Truckstop Name": "PETRO STOPPING CENTER #321",
  "Address": "I-70 & I-57, EXIT 159",
  "City": "Effingham",
  "State": "IL",
  "Rack ID": 574,
  "Retail Price": 3.439,
  "latitude": 39.13697459205623,
  "longitude": -88.56072412892057
},
{
  "_id": {
    "$oid": "679a98aba1745e2d73225e4d"
  },
  "OPIS Truckstop ID": 1204,
  "Truckstop Name": "PETRO STOPPING CENTER #321",
  "Address": "I-70 & I-57, EXIT 159",
  "City": "Effingham",
  "State": "IL",
  "Rack ID": 574,
  "Retail Price": 3.399,
  "latitude": 39.13697459205623,
  "longitude": -88.56072412892057
},
{
  "_id": {
    "$oid": "679a98aba1745e2d73225e4e"
  },
  "OPIS Truckstop ID": 1208,
  "Truckstop Name": "D AVENUE FUEL PLAZA",
  "Address": "US-131",
  "City": "Kalamazoo",
  "State": "MI",
  "Rack ID": 465,
  "Retail Price": 3.499,
  "latitude": 42.29422300936812,
  "longitude": -85.59906978789512
},
{
  "_id": {
    "$oid": "679a98aba1745e2d73225e4f"
  },
  "OPIS Truckstop ID": 1208,
  "Truckstop Name": "D AVENUE FUEL PLAZA",
  "Address": "US-131",
  "City": "Kalamazoo",
  "State": "MI",
  "Rack ID": 465,
  "Retail Price": 3.099,
  "latitude": 42.29422300936812,
  "longitude": -85.59906978789512
},
{
  "_id": {
    "$oid": "679a98aba1745e2d73225e50"
  },
  "OPIS Truckstop ID": 1210,
  "Truckstop Name": "ROADHAWK TRAVEL CENTER",
  "Address": "I-94, EXIT 56 & SR-51",
  "City": "Paw Paw                                 ",
  "State": "MI",
  "Rack ID": 465,
  "Retail Price": 3.599,
  "latitude": 42.20465425592588,
  "longitude": -85.93823952061867
},
{
  "_id": {
    "$oid": "679a98aba1745e2d73225e51"
  },
  "OPIS Truckstop ID": 1210,
  "Truckstop Name": "ROADHAWK TRAVEL CENTER",
  "Address": "I-94, EXIT 56 & SR-51",
  "City": "Paw Paw                                 ",
  "State": "MI",
  "Rack ID": 465,
  "Retail Price": 3.559,
  "latitude": 42.20465425592588,
  "longitude": -85.93823952061867
},
{
  "_id": {
    "$oid": "679a98aba1745e2d73225e52"
  },
  "OPIS Truckstop ID": 1217,
  "Truckstop Name": "KWIK TRIP #250",
  "Address": "I-90, EXIT 179",
  "City": "Austin",
  "State": "MN",
  "Rack ID": 515,
  "Retail Price": 3.374,
  "latitude": 43.68018491794376,
  "longitude": -92.96358658044247
},
{
  "_id": {
    "$oid": "679a98aba1745e2d73225e53"
  },
  "OPIS Truckstop ID": 1218,
  "Truckstop Name": "CASEYS #3658",
  "Address": "SR-210",
  "City": "Pillager",
  "State": "MN",
  "Rack ID": 522,
  "Retail Price": 3.299,
  "latitude": 46.378037829067665,
  "longitude": -94.4728735777773
},
{
  "_id": {
    "$oid": "679a98aba1745e2d73225e54"
  },
  "OPIS Truckstop ID": 1225,
  "Truckstop Name": "AYERCO #35",
  "Address": "US-61 & US-61 BUS",
  "City": "Bowling Green",
  "State": "MO",
  "Rack ID": 494,
  "Retail Price": 3.01566666,
  "latitude": 39.33802849783139,
  "longitude": -91.18129827883749
},
{
  "_id": {
    "$oid": "679a98aba1745e2d73225e55"
  },
  "OPIS Truckstop ID": 1234,
  "Truckstop Name": "Lamar Travel Plaza",
  "Address": "US-71 & US-160",
  "City": "Lamar",
  "State": "MO",
  "Rack ID": 416,
  "Retail Price": 3.199,
  "latitude": 37.4938001,
  "longitude": -94.2997622
},
{
  "_id": {
    "$oid": "679a98aba1745e2d73225e56"
  },
  "OPIS Truckstop ID": 1236,
  "Truckstop Name": "AYERCO #44",
  "Address": "US-36 & US-24",
  "City": "Palmyra",
  "State": "MO",
  "Rack ID": 494,
  "Retail Price": 3.01566666,
  "latitude": 39.7942213,
  "longitude": -91.5232557
},
{
  "_id": {
    "$oid": "679a98aba1745e2d73225e57"
  },
  "OPIS Truckstop ID": 1240,
  "Truckstop Name": "TEMP STOP #103",
  "Address": "US-65",
  "City": "Sedalia",
  "State": "MO",
  "Rack ID": 400,
  "Retail Price": 3.199,
  "latitude": 38.71496415,
  "longitude": -93.25006189999999
},
{
  "_id": {
    "$oid": "679a98aba1745e2d73225e58"
  },
  "OPIS Truckstop ID": 1247,
  "Truckstop Name": "SNAPPY MART #11",
  "Address": "US-63 & SR-14",
  "City": "West Plains",
  "State": "MO",
  "Rack ID": 535,
  "Retail Price": 3.299,
  "latitude": 36.75001442687484,
  "longitude": -91.87539155187595
},
{
  "_id": {
    "$oid": "679a98aba1745e2d73225e59"
  },
  "OPIS Truckstop ID": 1251,
  "Truckstop Name": "MAPCO #3009",
  "Address": "US-72",
  "City": "Corinth",
  "State": "MS",
  "Rack ID": 435,
  "Retail Price": 3.154,
  "latitude": 34.93096022177518,
  "longitude": -88.55372354195316
},
{
  "_id": {
    "$oid": "679a98aba1745e2d73225e5a"
  },
  "OPIS Truckstop ID": 1256,
  "Truckstop Name": "DOUBLE QUICK #89",
  "Address": "US-82/US-278",
  "City": "Greenville",
  "State": "MS",
  "Rack ID": 655,
  "Retail Price": 3.25566666,
  "latitude": 33.37556957295065,
  "longitude": -91.07269056382768
},
{
  "_id": {
    "$oid": "679a98aba1745e2d73225e5b"
  },
  "OPIS Truckstop ID": 1265,
  "Truckstop Name": "JOE JOES TRAVEL CENTER",
  "Address": "US-78 & RED BANKS RD S",
  "City": "Red Banks",
  "State": "MS",
  "Rack ID": 435,
  "Retail Price": 2.97233333,
  "latitude": 34.82581525,
  "longitude": -89.56462545
},
{
  "_id": {
    "$oid": "679a98aba1745e2d73225e5c"
  },
  "OPIS Truckstop ID": 1304,
  "Truckstop Name": "LOVES TRAVEL STOP #667",
  "Address": "I-85, EXIT 152",
  "City": "Mebane",
  "State": "NC",
  "Rack ID": 65,
  "Retail Price": 3.94733333,
  "latitude": 36.06856506299221,
  "longitude": -79.298814688237
},
{
  "_id": {
    "$oid": "679a98aba1745e2d73225e5d"
  },
  "OPIS Truckstop ID": 1315,
  "Truckstop Name": "CIRCLE K #2720218",
  "Address": "US-421 BUS & US-15/US-501/US-1",
  "City": "Sanford",
  "State": "NC",
  "Rack ID": 177,
  "Retail Price": 3.08233333,
  "latitude": 35.454962111160526,
  "longitude": -79.11959374632319
},
{
  "_id": {
    "$oid": "679a98aba1745e2d73225e5e"
  },
  "OPIS Truckstop ID": 1325,
  "Truckstop Name": "SCOTCHMAN #3303",
  "Address": "US-421 & US-74",
  "City": "Wilmington",
  "State": "NC",
  "Rack ID": 245,
  "Retail Price": 3.629,
  "latitude": 34.22007027570321,
  "longitude": -77.94426844483115
},
{
  "_id": {
    "$oid": "679a98aba1745e2d73225e5f"
  },
  "OPIS Truckstop ID": 1326,
  "Truckstop Name": "SPEEDWAY #7949",
  "Address": "US-301/US-264 ALT & CR-1674",
  "City": "Wilson",
  "State": "NC",
  "Rack ID": 205,
  "Retail Price": 3.199,
  "latitude": 35.71894108103297,
  "longitude": -77.89380166624261
},
{
  "_id": {
    "$oid": "679a98aba1745e2d73225e60"
  },
  "OPIS Truckstop ID": 1333,
  "Truckstop Name": "PUMP & PANTRY #15",
  "Address": "US-30",
  "City": "Grand Island",
  "State": "NE",
  "Rack ID": 330,
  "Retail Price": 3.30733333,
  "latitude": 40.910593399999996,
  "longitude": -98.39088945
},
{
  "_id": {
    "$oid": "679a98aba1745e2d73225e61"
  },
  "OPIS Truckstop ID": 1340,
  "Truckstop Name": "BORDENTOWN VALERO",
  "Address": "NJ TNPK, EXIT 7 & US-206",
  "City": "Bordentown",
  "State": "NJ",
  "Rack ID": 230,
  "Retail Price": 3.499,
  "latitude": 40.11771122573843,
  "longitude": -74.70656153404089
},
{
  "_id": {
    "$oid": "679a98aba1745e2d73225e62"
  },
  "OPIS Truckstop ID": 1342,
  "Truckstop Name": "Delta",
  "Address": "I-80, EXIT 47B",
  "City": "Fairfield",
  "State": "NJ",
  "Rack ID": 115,
  "Retail Price": 3.20233333,
  "latitude": 40.89437526061671,
  "longitude": -74.26654604075691
},
{
  "_id": {
    "$oid": "679a98aba1745e2d73225e63"
  },
  "OPIS Truckstop ID": 1344,
  "Truckstop Name": "BOLLA TRUCK STOP #193",
  "Address": "US-202 & SR-17",
  "City": "Mahwah",
  "State": "NJ",
  "Rack ID": 115,
  "Retail Price": 3.53233333,
  "latitude": 41.077138996120134,
  "longitude": -74.19230827242481
},
{
  "_id": {
    "$oid": "679a98aba1745e2d73225e64"
  },
  "OPIS Truckstop ID": 1348,
  "Truckstop Name": "GLOBAL",
  "Address": "SR-73",
  "City": "Palmyra",
  "State": "NJ",
  "Rack ID": 150,
  "Retail Price": 3.359,
  "latitude": 39.940956782174055,
  "longitude": -75.027462381448
},
{
  "_id": {
    "$oid": "679a98aba1745e2d73225e65"
  },
  "OPIS Truckstop ID": 1356,
  "Truckstop Name": "LOVES TRAVEL STOP #257",
  "Address": "I-40 & HORIZON, EXIT 79",
  "City": "Milan",
  "State": "NM",
  "Rack ID": 580,
  "Retail Price": 3.59066666,
  "latitude": 35.182378799999995,
  "longitude": -107.9010491
},
{
  "_id": {
    "$oid": "679a98aba1745e2d73225e66"
  },
  "OPIS Truckstop ID": 1364,
  "Truckstop Name": "7- ELEVEN #40507",
  "Address": "I-80/I-90, MM 56 WB",
  "City": "Rolling Prairie",
  "State": "IN",
  "Rack ID": 465,
  "Retail Price": 3.98233333,
  "latitude": 41.6745495,
  "longitude": -86.6160192
},
{
  "_id": {
    "$oid": "679a98aba1745e2d73225e67"
  },
  "OPIS Truckstop ID": 1372,
  "Truckstop Name": "PILOT TRAVEL CENTER #469",
  "Address": "I-77, EXIT 101 & SR-627",
  "City": "Canton",
  "State": "OH",
  "Rack ID": 249,
  "Retail Price": 3.62233333,
  "latitude": 40.77817079624294,
  "longitude": -81.38139026400411
},
{
  "_id": {
    "$oid": "679a98aba1745e2d73225e68"
  },
  "OPIS Truckstop ID": 1376,
  "Truckstop Name": "FUEL MART #782",
  "Address": "I-75, EXIT 118",
  "City": "Lima                                    ",
  "State": "OH",
  "Rack ID": 411,
  "Retail Price": 3.08566666,
  "latitude": 40.7233827,
  "longitude": -84.0752029
},
{
  "_id": {
    "$oid": "679a98aba1745e2d73225e69"
  },
  "OPIS Truckstop ID": 1379,
  "Truckstop Name": "TA LODI TRAVEL CENTER",
  "Address": "I-71, EXIT 209 & I-76/US-224, EXIT 1",
  "City": "Seville",
  "State": "OH",
  "Rack ID": 305,
  "Retail Price": 3.739,
  "latitude": 41.010077,
  "longitude": -81.8622222
},
{
  "_id": {
    "$oid": "679a98aba1745e2d73225e6a"
  },
  "OPIS Truckstop ID": 1384,
  "Truckstop Name": "SUNOCO",
  "Address": "I-80/I-90, EXIT 13 & US-20ALT/SR-15",
  "City": "Montpelier",
  "State": "OH",
  "Rack ID": 550,
  "Retail Price": 3.41566666,
  "latitude": 41.5844951,
  "longitude": -84.6055076
},
{
  "_id": {
    "$oid": "679a98aba1745e2d73225e6b"
  },
  "OPIS Truckstop ID": 1391,
  "Truckstop Name": "ONCUE EXPRESS #2045",
  "Address": "I-35, EXIT 203 & SR-15",
  "City": "Billings",
  "State": "OK",
  "Rack ID": 500,
  "Retail Price": 3.21566666,
  "latitude": 36.53167844614431,
  "longitude": -97.34310866470287
},
{
  "_id": {
    "$oid": "679a98aba1745e2d73225e6c"
  },
  "OPIS Truckstop ID": 1395,
  "Truckstop Name": "DOMINO FOOD AND FUEL #1",
  "Address": "I-40, EXIT 66",
  "City": "Clinton                                 ",
  "State": "OK",
  "Rack ID": 483,
  "Retail Price": 3.099,
  "latitude": 35.49710105,
  "longitude": -98.98733849999999
},
{
  "_id": {
    "$oid": "679a98aba1745e2d73225e6d"
  },
  "OPIS Truckstop ID": 1404,
  "Truckstop Name": "ONE9 #339",
  "Address": "I-74, EXIT 4 & SR-63",
  "City": "Covington",
  "State": "IN",
  "Rack ID": 375,
  "Retail Price": 3.26233333,
  "latitude": 40.1370345,
  "longitude": -87.3970886
},
{
  "_id": {
    "$oid": "679a98aba1745e2d73225e6e"
  },
  "OPIS Truckstop ID": 1414,
  "Truckstop Name": "SAC SHOP #507",
  "Address": "I-70, EXIT 12/161",
  "City": "Breezewood                              ",
  "State": "PA",
  "Rack ID": 14,
  "Retail Price": 4.099,
  "latitude": 39.999260319958864,
  "longitude": -78.23851840783273
},
{
  "_id": {
    "$oid": "679a98aba1745e2d73225e6f"
  },
  "OPIS Truckstop ID": 1424,
  "Truckstop Name": "GETTYSBURG TRAVEL PLAZA",
  "Address": "US-15 & SR-394",
  "City": "Gettysburg",
  "State": "PA",
  "Rack ID": 70,
  "Retail Price": 3.899,
  "latitude": 39.8308973,
  "longitude": -77.231012
},
{
  "_id": {
    "$oid": "679a98aba1745e2d73225e70"
  },
  "OPIS Truckstop ID": 1428,
  "Truckstop Name": "CIRCLE K #4702408",
  "Address": "I-65, EXIT 168 & SR-38/SR-25",
  "City": "Lafayette",
  "State": "IN",
  "Rack ID": 375,
  "Retail Price": 3.43233333,
  "latitude": 40.39998322124785,
  "longitude": -86.79912207014058
},
{
  "_id": {
    "$oid": "679a98aba1745e2d73225e71"
  },
  "OPIS Truckstop ID": 1432,
  "Truckstop Name": "KWIK FILL #259",
  "Address": "I-81, EXIT 57",
  "City": "Mechanicsburg                           ",
  "State": "PA",
  "Rack ID": 70,
  "Retail Price": 4.049,
  "latitude": 40.2101972,
  "longitude": -77.0047276
},
{
  "_id": {
    "$oid": "679a98aba1745e2d73225e72"
  },
  "OPIS Truckstop ID": 1444,
  "Truckstop Name": "PILOT TRAVEL CENTERS #346",
  "Address": "I-20, EXIT 92 & US-601",
  "City": "Lugoff",
  "State": "SC",
  "Rack ID": 135,
  "Retail Price": 3.43233333,
  "latitude": 34.20297738502817,
  "longitude": -80.65672625016202
},
{
  "_id": {
    "$oid": "679a98aba1745e2d73225e73"
  },
  "OPIS Truckstop ID": 1445,
  "Truckstop Name": "PILOT TRAVEL CENTERS #402",
  "Address": "I-80, EXIT 367",
  "City": "Cheyenne",
  "State": "WY",
  "Rack ID": 795,
  "Retail Price": 3.709,
  "latitude": 41.1353608,
  "longitude": -104.70458735000001
},
{
  "_id": {
    "$oid": "679a98aba1745e2d73225e74"
  },
  "OPIS Truckstop ID": 1447,
  "Truckstop Name": "HOT SPOT #3005",
  "Address": "US-221",
  "City": "Chesnee",
  "State": "SC",
  "Rack ID": 210,
  "Retail Price": 3.199,
  "latitude": 35.14718749185111,
  "longitude": -81.8603766407266
},
{
  "_id": {
    "$oid": "679a98aba1745e2d73225e75"
  },
  "OPIS Truckstop ID": 1453,
  "Truckstop Name": "EXPRESS STOP",
  "Address": "US-278/SR-101/SR-6 & SR-113",
  "City": "Rockmart",
  "State": "GA",
  "Rack ID": 193,
  "Retail Price": 3.319,
  "latitude": 34.01026239596283,
  "longitude": -85.0347281448789
},
{
  "_id": {
    "$oid": "679a98aba1745e2d73225e76"
  },
  "OPIS Truckstop ID": 1455,
  "Truckstop Name": "PETRO FLORENCE",
  "Address": "I-95, EXIT 169",
  "City": "Florence",
  "State": "SC",
  "Rack ID": 46,
  "Retail Price": 3.32566666,
  "latitude": 34.23416480094651,
  "longitude": -79.7943976755
},
{
  "_id": {
    "$oid": "679a98aba1745e2d73225e77"
  },
  "OPIS Truckstop ID": 1461,
  "Truckstop Name": "CIRCLE K #2705370",
  "Address": "I-26, EXIT 15 & US-176",
  "City": "Inman",
  "State": "SC",
  "Rack ID": 210,
  "Retail Price": 3.099,
  "latitude": 35.047841,
  "longitude": -82.0906082
},
{
  "_id": {
    "$oid": "679a98aba1745e2d73225e78"
  },
  "OPIS Truckstop ID": 1464,
  "Truckstop Name": "CIRCLE K #2723254",
  "Address": "I-20, EXIT 55 & SR-6",
  "City": "Lexington",
  "State": "SC",
  "Rack ID": 135,
  "Retail Price": 3.199,
  "latitude": 33.7983928,
  "longitude": -81.46966359999999
},
{
  "_id": {
    "$oid": "679a98aba1745e2d73225e79"
  },
  "OPIS Truckstop ID": 1470,
  "Truckstop Name": "CIRCLE K #2705348",
  "Address": "US-1",
  "City": "Beech Island",
  "State": "SC",
  "Rack ID": 135,
  "Retail Price": 3.159,
  "latitude": 33.4273614,
  "longitude": -81.8909473
},
{
  "_id": {
    "$oid": "679a98aba1745e2d73225e7a"
  },
  "OPIS Truckstop ID": 1479,
  "Truckstop Name": "TA SPARTANBURG TRAVEL CENTER",
  "Address": "I-85, EXIT 63 & SR-290",
  "City": "Duncan",
  "State": "SC",
  "Rack ID": 210,
  "Retail Price": 3.43233333,
  "latitude": 34.91646872397346,
  "longitude": -82.10339183865783
},
{
  "_id": {
    "$oid": "679a98aba1745e2d73225e7b"
  },
  "OPIS Truckstop ID": 1487,
  "Truckstop Name": "ROADRUNNER MARKET #6019",
  "Address": "I-81, EXIT 36 NORTH",
  "City": "Greeneville                             ",
  "State": "TN",
  "Rack ID": 405,
  "Retail Price": 3.499,
  "latitude": 36.1631575,
  "longitude": -82.8309861
},
{
  "_id": {
    "$oid": "679a98aba1745e2d73225e7c"
  },
  "OPIS Truckstop ID": 1492,
  "Truckstop Name": "MAPCO #3538",
  "Address": "I-24, EXIT 174",
  "City": "Chattanooga",
  "State": "TN",
  "Rack ID": 285,
  "Retail Price": 2.899,
  "latitude": 35.02918350623335,
  "longitude": -85.35717704558772
},
{
  "_id": {
    "$oid": "679a98aba1745e2d73225e7d"
  },
  "OPIS Truckstop ID": 1507,
  "Truckstop Name": "CIRCLE K #4703941",
  "Address": "I-55, EXIT 5A",
  "City": "Memphis",
  "State": "TN",
  "Rack ID": 435,
  "Retail Price": 3.189,
  "latitude": 35.116667899999996,
  "longitude": -90.07175534999999
},
{
  "_id": {
    "$oid": "679a98aba1745e2d73225e7e"
  },
  "OPIS Truckstop ID": 1516,
  "Truckstop Name": "LOVES TRAVEL STOP #261",
  "Address": "I-27 EXIT 116",
  "City": "Amarillo",
  "State": "TX",
  "Rack ID": 585,
  "Retail Price": 3.23233333,
  "latitude": 35.177792763612366,
  "longitude": -101.84206856204996
},
{
  "_id": {
    "$oid": "679a98aba1745e2d73225e7f"
  },
  "OPIS Truckstop ID": 1531,
  "Truckstop Name": "CircleK #4702365",
  "Address": "I-74, EXIT 112 & SR-9",
  "City": "Shelbyville",
  "State": "IN",
  "Rack ID": 375,
  "Retail Price": 3.509,
  "latitude": 39.52879040870675,
  "longitude": -85.74136734386245
},
{
  "_id": {
    "$oid": "679a98aba1745e2d73225e80"
  },
  "OPIS Truckstop ID": 1533,
  "Truckstop Name": "YESWAY #1157",
  "Address": "US-62",
  "City": "Brownfield",
  "State": "TX",
  "Rack ID": 700,
  "Retail Price": 2.99233333,
  "latitude": 33.186805904757996,
  "longitude": -102.27419420315996
},
{
  "_id": {
    "$oid": "679a98aba1745e2d73225e81"
  },
  "OPIS Truckstop ID": 1546,
  "Truckstop Name": "SHELL",
  "Address": "I-35, EXIT 86 & SR-85",
  "City": "Dilley",
  "State": "TX",
  "Rack ID": 740,
  "Retail Price": 3.099,
  "latitude": 28.671012277993306,
  "longitude": -99.18373568025777
},
{
  "_id": {
    "$oid": "679a98aba1745e2d73225e82"
  },
  "OPIS Truckstop ID": 1548,
  "Truckstop Name": "TOOT N TOTUM #107",
  "Address": "US-287",
  "City": "Dumas",
  "State": "TX",
  "Rack ID": 585,
  "Retail Price": 3.03233333,
  "latitude": 35.85484086932445,
  "longitude": -101.97333150569867
},
{
  "_id": {
    "$oid": "679a98aba1745e2d73225e83"
  },
  "OPIS Truckstop ID": 1552,
  "Truckstop Name": "STRIPES #40911",
  "Address": "US-59 & SR-16",
  "City": "Freer",
  "State": "TX",
  "Rack ID": 625,
  "Retail Price": 3.099,
  "latitude": 27.88290155295344,
  "longitude": -98.60063807001077
},
{
  "_id": {
    "$oid": "679a98aba1745e2d73225e84"
  },
  "OPIS Truckstop ID": 1555,
  "Truckstop Name": "SEIBERT TRAVEL PLAZA",
  "Address": "I-70, EXIT 405 & SR-59",
  "City": "Seibert",
  "State": "CO",
  "Rack ID": 800,
  "Retail Price": 3.499,
  "latitude": 39.30099,
  "longitude": -102.8696143
},
{
  "_id": {
    "$oid": "679a98aba1745e2d73225e85"
  },
  "OPIS Truckstop ID": 1560,
  "Truckstop Name": "CATTREZ",
  "Address": "US-20 & SR-5",
  "City": "Irving",
  "State": "NY",
  "Rack ID": 38,
  "Retail Price": 2.899,
  "latitude": 42.56219892819434,
  "longitude": -79.11779441755829
},
{
  "_id": {
    "$oid": "679a98aba1745e2d73225e86"
  },
  "OPIS Truckstop ID": 1560,
  "Truckstop Name": "CATTREZ",
  "Address": "US-20 & SR-5",
  "City": "Irving",
  "State": "NY",
  "Rack ID": 38,
  "Retail Price": 2.999,
  "latitude": 42.56219892819434,
  "longitude": -79.11779441755829
},
{
  "_id": {
    "$oid": "679a98aba1745e2d73225e87"
  },
  "OPIS Truckstop ID": 1562,
  "Truckstop Name": "I MART #108",
  "Address": "I-40, EXIT 108",
  "City": "Wildersville                            ",
  "State": "TN",
  "Rack ID": 435,
  "Retail Price": 3.099,
  "latitude": 35.7814547,
  "longitude": -88.3603243
},
{
  "_id": {
    "$oid": "679a98aba1745e2d73225e88"
  },
  "OPIS Truckstop ID": 1567,
  "Truckstop Name": "KUM & GO #4110",
  "Address": "I-235, EXIT 11",
  "City": "Des Moines",
  "State": "IA",
  "Rack ID": 320,
  "Retail Price": 3.02733333,
  "latitude": 41.59451184551452,
  "longitude": -93.65061892364733
},
{
  "_id": {
    "$oid": "679a98aba1745e2d73225e89"
  },
  "OPIS Truckstop ID": 1579,
  "Truckstop Name": "FLYING J TRAVEL PLAZA #924- TOWN PUMP",
  "Address": "I-15, EXIT 122 & I-90 MM220",
  "City": "Butte                                   ",
  "State": "MT",
  "Rack ID": 816,
  "Retail Price": 3.56566666,
  "latitude": 45.67267415242545,
  "longitude": -112.68559193087701
},
{
  "_id": {
    "$oid": "679a98aba1745e2d73225e8a"
  },
  "OPIS Truckstop ID": 1582,
  "Truckstop Name": "LOVES TRAVEL STOP #250",
  "Address": "I-40 EXIT 60",
  "City": "Amarillo",
  "State": "TX",
  "Rack ID": 585,
  "Retail Price": 3.314,
  "latitude": 35.192898895900036,
  "longitude": -101.72362452284996
},
{
  "_id": {
    "$oid": "679a98aba1745e2d73225e8b"
  },
  "OPIS Truckstop ID": 1585,
  "Truckstop Name": "Stripes 7Fleet #42498",
  "Address": "US-385 & CR-1910",
  "City": "Andrews",
  "State": "TX",
  "Rack ID": 710,
  "Retail Price": 3.369,
  "latitude": 32.32856514750463,
  "longitude": -102.5496738116637
},
{
  "_id": {
    "$oid": "679a98aba1745e2d73225e8c"
  },
  "OPIS Truckstop ID": 1590,
  "Truckstop Name": "ROAD RANGER #240",
  "Address": "I-80 & I-94, EXIT 15-A",
  "City": "Lake Station",
  "State": "IN",
  "Rack ID": 365,
  "Retail Price": 3.559,
  "latitude": 41.573159700000005,
  "longitude": -87.27870995
},
{
  "_id": {
    "$oid": "679a98aba1745e2d73225e8d"
  },
  "OPIS Truckstop ID": 1596,
  "Truckstop Name": "FLYING J #305",
  "Address": "I-40, EXIT 39",
  "City": "Jamestown",
  "State": "NM",
  "Rack ID": 580,
  "Retail Price": 3.44233333,
  "latitude": 35.4808706,
  "longitude": -108.4330656
},
{
  "_id": {
    "$oid": "679a98aba1745e2d73225e8e"
  },
  "OPIS Truckstop ID": 1597,
  "Truckstop Name": "7-ELEVEN #36156",
  "Address": "I-70 & SR-519, EXIT 25/333",
  "City": "Eighty Four",
  "State": "PA",
  "Rack ID": 165,
  "Retail Price": 4.999,
  "latitude": 40.1827171,
  "longitude": -80.1331455
},
{
  "_id": {
    "$oid": "679a98aba1745e2d73225e8f"
  },
  "OPIS Truckstop ID": 1599,
  "Truckstop Name": "ONVO TRAVEL PLAZA",
  "Address": "I-81, EXIT 10",
  "City": "Mc Graw",
  "State": "NY",
  "Rack ID": 220,
  "Retail Price": 3.439,
  "latitude": 42.93038655022885,
  "longitude": -74.25557877473464
},
{
  "_id": {
    "$oid": "679a98aba1745e2d73225e90"
  },
  "OPIS Truckstop ID": 1599,
  "Truckstop Name": "ONVO TRAVEL PLAZA",
  "Address": "I-81, EXIT 10",
  "City": "Mc Graw",
  "State": "NY",
  "Rack ID": 220,
  "Retail Price": 3.459,
  "latitude": 42.93038655022885,
  "longitude": -74.25557877473464
},
{
  "_id": {
    "$oid": "679a98aba1745e2d73225e91"
  },
  "OPIS Truckstop ID": 1602,
  "Truckstop Name": "CIRCLE K #2723387",
  "Address": "US-98",
  "City": "Beaumont",
  "State": "MS",
  "Rack ID": 620,
  "Retail Price": 3.56566666,
  "latitude": 31.15866840692646,
  "longitude": -88.9214880611575
},
{
  "_id": {
    "$oid": "679a98aba1745e2d73225e92"
  },
  "OPIS Truckstop ID": 1606,
  "Truckstop Name": "DONNAS TRAVEL PLAZA",
  "Address": "I-5, EXIT 202",
  "City": "Marysville",
  "State": "WA",
  "Rack ID": 962,
  "Retail Price": 4.559,
  "latitude": 48.0463598,
  "longitude": -122.18229769999999
},
{
  "_id": {
    "$oid": "679a98aba1745e2d73225e93"
  },
  "OPIS Truckstop ID": 1610,
  "Truckstop Name": "TA BALTIMORE TRAVEL CENTER",
  "Address": "I-95, EXIT 57",
  "City": "Baltimore                               ",
  "State": "MD",
  "Rack ID": 22,
  "Retail Price": 4.759,
  "latitude": 39.26001659085553,
  "longitude": -76.57812300778781
},
{
  "_id": {
    "$oid": "679a98aba1745e2d73225e94"
  },
  "OPIS Truckstop ID": 1618,
  "Truckstop Name": "GO MART FOOD STORE #33",
  "Address": "US-33",
  "City": "Ripley                                  ",
  "State": "WV",
  "Rack ID": 44,
  "Retail Price": 3.499,
  "latitude": 38.820047200000005,
  "longitude": -81.72780535
},
{
  "_id": {
    "$oid": "679a98aba1745e2d73225e95"
  },
  "OPIS Truckstop ID": 1621,
  "Truckstop Name": "CIRCLE K #2709337",
  "Address": "I-65, EXIT 262B",
  "City": "Birmingham                              ",
  "State": "AL",
  "Rack ID": 615,
  "Retail Price": 3.489,
  "latitude": 33.4963493,
  "longitude": -86.8159398
},
{
  "_id": {
    "$oid": "679a98aba1745e2d73225e96"
  },
  "OPIS Truckstop ID": 1622,
  "Truckstop Name": "RACEWAY #6973",
  "Address": "US-380 & SR-114/SR-101",
  "City": "Bridgeport",
  "State": "TX",
  "Rack ID": 630,
  "Retail Price": 2.78233333,
  "latitude": 33.22038449395046,
  "longitude": -97.77772113426666
},
{
  "_id": {
    "$oid": "679a98aba1745e2d73225e97"
  },
  "OPIS Truckstop ID": 1623,
  "Truckstop Name": "SAPP BROS TRAVEL CENTER",
  "Address": "I-70 & I-270, EXIT 278",
  "City": "Commerce City",
  "State": "CO",
  "Rack ID": 800,
  "Retail Price": 3.389,
  "latitude": 39.8083196,
  "longitude": -104.9338675
},
{
  "_id": {
    "$oid": "679a98aba1745e2d73225e98"
  },
  "OPIS Truckstop ID": 1625,
  "Truckstop Name": "PILOT TRAVEL CENTERS #60",
  "Address": "I-26, EXIT 159",
  "City": "Bowman                                  ",
  "State": "SC",
  "Rack ID": 42,
  "Retail Price": 3.43233333,
  "latitude": 33.3487699,
  "longitude": -80.6828713
},
{
  "_id": {
    "$oid": "679a98aba1745e2d73225e99"
  },
  "OPIS Truckstop ID": 1632,
  "Truckstop Name": "PILOT TRAVEL CENTERS #266",
  "Address": "I-10, EXIT 139 & SR-292",
  "City": "Las Cruces                              ",
  "State": "NM",
  "Rack ID": 640,
  "Retail Price": 3.19066666,
  "latitude": 32.28342508249976,
  "longitude": -106.86538091240138
},
{
  "_id": {
    "$oid": "679a98aba1745e2d73225e9a"
  },
  "OPIS Truckstop ID": 1633,
  "Truckstop Name": "7-ELEVEN #36302",
  "Address": "I-35, EXIT 144",
  "City": "Von Ormy",
  "State": "TX",
  "Rack ID": 740,
  "Retail Price": 3.109,
  "latitude": 29.28607430165199,
  "longitude": -98.65014486467594
},
{
  "_id": {
    "$oid": "679a98aba1745e2d73225e9b"
  },
  "OPIS Truckstop ID": 1634,
  "Truckstop Name": "PILOT TRAVEL CENTERS #40",
  "Address": "I-94, EXIT 322",
  "City": "Oak Creek",
  "State": "WI",
  "Rack ID": 444,
  "Retail Price": 3.889,
  "latitude": 42.86287466360973,
  "longitude": -87.93742992501052
},
{
  "_id": {
    "$oid": "679a98aba1745e2d73225e9c"
  },
  "OPIS Truckstop ID": 1644,
  "Truckstop Name": "ALLSUPS CONVENIENCE STORE #2414",
  "Address": "I-20, EXIT 235",
  "City": "Roscoe",
  "State": "TX",
  "Rack ID": 575,
  "Retail Price": 2.929,
  "latitude": 32.43294298710324,
  "longitude": -100.54189044465645
},
{
  "_id": {
    "$oid": "679a98aba1745e2d73225e9d"
  },
  "OPIS Truckstop ID": 1646,
  "Truckstop Name": "SPEEDWAY #8310",
  "Address": "US-6  & US-31",
  "City": "Plymouth",
  "State": "IN",
  "Rack ID": 465,
  "Retail Price": 3.609,
  "latitude": 41.3436555,
  "longitude": -86.3097278
},
{
  "_id": {
    "$oid": "679a98aba1745e2d73225e9e"
  },
  "OPIS Truckstop ID": 1647,
  "Truckstop Name": "SPEEDWAY #8305",
  "Address": "US-41 & SR-312",
  "City": "Hammond",
  "State": "IN",
  "Rack ID": 290,
  "Retail Price": 3.76566666,
  "latitude": 41.69685321475162,
  "longitude": -87.51789073633995
},
{
  "_id": {
    "$oid": "679a98aba1745e2d73225e9f"
  },
  "OPIS Truckstop ID": 1653,
  "Truckstop Name": "ROAD RANGER #187",
  "Address": "I-55, EXIT 289",
  "City": "Chicago",
  "State": "IL",
  "Rack ID": 520,
  "Retail Price": 3.569,
  "latitude": 41.843102573818534,
  "longitude": -87.65628599299696
},
{
  "_id": {
    "$oid": "679a98aba1745e2d73225ea0"
  },
  "OPIS Truckstop ID": 1653,
  "Truckstop Name": "ROAD RANGER #187",
  "Address": "I-55, EXIT 289",
  "City": "Chicago",
  "State": "IL",
  "Rack ID": 520,
  "Retail Price": 3.599,
  "latitude": 41.843102573818534,
  "longitude": -87.65628599299696
},
{
  "_id": {
    "$oid": "679a98aba1745e2d73225ea1"
  },
  "OPIS Truckstop ID": 1654,
  "Truckstop Name": "CEFCO #3",
  "Address": "US-77/US190/SR-36",
  "City": "Cameron",
  "State": "TX",
  "Rack ID": 670,
  "Retail Price": 2.989,
  "latitude": 26.0615307,
  "longitude": -97.56655905
},
{
  "_id": {
    "$oid": "679a98aba1745e2d73225ea2"
  },
  "OPIS Truckstop ID": 1661,
  "Truckstop Name": "CHEVRON",
  "Address": "I-20, EXIT 101 & SR-151",
  "City": "Calhoun",
  "State": "LA",
  "Rack ID": 590,
  "Retail Price": 3.159,
  "latitude": 33.611064081042414,
  "longitude": -85.76563846005283
},
{
  "_id": {
    "$oid": "679a98aba1745e2d73225ea3"
  },
  "OPIS Truckstop ID": 1669,
  "Truckstop Name": "BETTY BEAVERS TRUCKSTOP",
  "Address": "I-90, EXIT 28",
  "City": "Fultonville",
  "State": "NY",
  "Rack ID": 12,
  "Retail Price": 3.149,
  "latitude": 42.946600788818294,
  "longitude": -74.36876341872082
},
{
  "_id": {
    "$oid": "679a98aba1745e2d73225ea4"
  },
  "OPIS Truckstop ID": 1669,
  "Truckstop Name": "BETTY BEAVERS TRUCKSTOP",
  "Address": "I-90, EXIT 28",
  "City": "Fultonville",
  "State": "NY",
  "Rack ID": 12,
  "Retail Price": 3.189,
  "latitude": 42.946600788818294,
  "longitude": -74.36876341872082
},
{
  "_id": {
    "$oid": "679a98aba1745e2d73225ea5"
  },
  "OPIS Truckstop ID": 1670,
  "Truckstop Name": "Petro Stopping Center #54",
  "Address": "I-44, EXIT 4 & SR-3",
  "City": "Joplin",
  "State": "MO",
  "Rack ID": 277,
  "Retail Price": 3.449,
  "latitude": 37.04725056628171,
  "longitude": -94.47028268562683
},
{
  "_id": {
    "$oid": "679a98aba1745e2d73225ea6"
  },
  "OPIS Truckstop ID": 1671,
  "Truckstop Name": "LOVES TRAVEL STOP #412",
  "Address": "I-95, EXIT 77",
  "City": "Dunn",
  "State": "NC",
  "Rack ID": 205,
  "Retail Price": 3.699,
  "latitude": 35.30192010392827,
  "longitude": -78.59476141371674
},
{
  "_id": {
    "$oid": "679a98aba1745e2d73225ea7"
  },
  "OPIS Truckstop ID": 1672,
  "Truckstop Name": "HANA TRAVEL PLAZA",
  "Address": "I-40,  EXIT 77",
  "City": "Amarillo",
  "State": "TX",
  "Rack ID": 585,
  "Retail Price": 2.899,
  "latitude": 35.192898895900036,
  "longitude": -101.72362452284996
},
{
  "_id": {
    "$oid": "679a98aba1745e2d73225ea8"
  },
  "OPIS Truckstop ID": 1699,
  "Truckstop Name": "ALLENS FOOD MART280",
  "Address": "US-280/US-231/SR-53/SR-38 & CR-8/CR-34",
  "City": "Sylacauga",
  "State": "AL",
  "Rack ID": 615,
  "Retail Price": 3.799,
  "latitude": 33.15942485284412,
  "longitude": -86.27210931240809
},
{
  "_id": {
    "$oid": "679a98aba1745e2d73225ea9"
  },
  "OPIS Truckstop ID": 1700,
  "Truckstop Name": "TOPPS FUEL STOPS",
  "Address": "US-259/SR-49",
  "City": "Daingerfield",
  "State": "TX",
  "Rack ID": 723,
  "Retail Price": 3.109,
  "latitude": 33.03116155797863,
  "longitude": -94.72587472333052
},
{
  "_id": {
    "$oid": "679a98aba1745e2d73225eaa"
  },
  "OPIS Truckstop ID": 1720,
  "Truckstop Name": "TOOT N TOTUM #120",
  "Address": "US-54 & S WESTERN AVE",
  "City": "Liberal",
  "State": "KS",
  "Rack ID": 585,
  "Retail Price": 3.01566666,
  "latitude": 37.03687506391893,
  "longitude": -100.90651195711048
},
{
  "_id": {
    "$oid": "679a98aba1745e2d73225eab"
  },
  "OPIS Truckstop ID": 1749,
  "Truckstop Name": "HIGHWAY 96 FUEL STOP",
  "Address": "US-96 & SR-62/FM-1004",
  "City": "Buna                                    ",
  "State": "TX",
  "Rack ID": 610,
  "Retail Price": 3.149,
  "latitude": 30.426417931441698,
  "longitude": -93.98341600028331
},
{
  "_id": {
    "$oid": "679a98aba1745e2d73225eac"
  },
  "OPIS Truckstop ID": 1753,
  "Truckstop Name": "PWI #169",
  "Address": "I-35/US-77, EXIT 359 & CR-1304",
  "City": "Abbott",
  "State": "TX",
  "Rack ID": 765,
  "Retail Price": 2.899,
  "latitude": 31.88452515,
  "longitude": -97.08354475
},
{
  "_id": {
    "$oid": "679a98aba1745e2d73225ead"
  },
  "OPIS Truckstop ID": 1773,
  "Truckstop Name": "M-46 AUTO TRUCK PLAZA",
  "Address": "US-131, EXIT 120 & SR-46",
  "City": "Howard City",
  "State": "MI",
  "Rack ID": 344,
  "Retail Price": 3.199,
  "latitude": 43.40186645,
  "longitude": -85.46840945
},
{
  "_id": {
    "$oid": "679a98aba1745e2d73225eae"
  },
  "OPIS Truckstop ID": 1773,
  "Truckstop Name": "M-46 AUTO TRUCK PLAZA",
  "Address": "US-131, EXIT 120 & SR-46",
  "City": "Howard City",
  "State": "MI",
  "Rack ID": 344,
  "Retail Price": 3.599,
  "latitude": 43.40186645,
  "longitude": -85.46840945
},
{
  "_id": {
    "$oid": "679a98aba1745e2d73225eaf"
  },
  "OPIS Truckstop ID": 1773,
  "Truckstop Name": "M-46 AUTO TRUCK PLAZA",
  "Address": "US-131, EXIT 120 & SR-46",
  "City": "Howard City",
  "State": "MI",
  "Rack ID": 344,
  "Retail Price": 3.099,
  "latitude": 43.40186645,
  "longitude": -85.46840945
},
{
  "_id": {
    "$oid": "679a98aba1745e2d73225eb0"
  },